time(millisecond),datetime(utc),latitude,longitude,height_above_takeoff(feet),height_above_ground_at_drone_location(feet),ground_elevation_at_drone_location(feet),altitude_above_seaLevel(feet),height_sonar(feet),speed(mph),distance(feet),satellites,gpslevel,voltage(v),max_altitude(feet),max_ascent(feet),max_speed(mph),max_distance(feet), xSpeed(mph), ySpeed(mph), zSpeed(mph), compass_heading(degrees), pitch(degrees), roll(degrees),isPhoto,isVideo,rc_elevator,rc_aileron,rc_throttle,rc_rudder,gimbal_heading(degrees),gimbal_pitch(degrees),battery_percent,voltageCell1,voltageCell2,voltageCell3,voltageCell4,voltageCell5,voltageCell6,current(A),battery_temperature(f),altitude(feet),ascent(feet),flycStateRaw,flycState,message
0,2021-09-06 02:47:58,0,0,0,,,17.710511721592,0.328084,0,0,0,0,0,17.710511721592,0,0,0,0,0,0,269.6, 2.3, 1.6,0,0,364,364,364,1684,270.2,0,96,4.199,4.198,4.199,0,0,0,0,77.36,17.710511721592,0,6,P-GPS,Aircraft in Altitude Zone. Max altitude set to 98 ft (Code: 30015)
100,2021-09-06 02:47:58,0,0,0,,,17.710511721592,0.328084,0,0,0,0,0,17.710511721592,0,0,0,0,0,0,269.5, 2.3, 1.6,0,0,364,364,364,1684,270.2,0,96,4.199,4.198,4.199,0,0,0,0,77.36,17.710511721592,0,41,Motors_Started,
200,2021-09-06 02:47:58,0,0,0,,,17.710511721592,0.328084,0,0,0,0,0,17.710511721592,0,0,0,0,0,0,269.6, 2.3, 1.6,0,0,364,364,364,1684,270.2,0,96,4.199,4.198,4.199,0,0,0,0,77.36,17.710511721592,0,41,Motors_Started,
300,2021-09-06 02:47:58,0,0,0,,,17.710511721592,0.328084,0,0,0,0,0,17.710511721592,0,0,0,0,0,0,269.6, 2.3, 1.6,0,0,364,364,364,1684,270.2,0,96,4.199,4.198,4.199,0,0,0,0,77.36,17.710511721592,0,41,Motors_Started,
400,2021-09-06 02:47:58,0,0,0,,,17.710511721592,0.328084,0,0,0,0,0,17.710511721592,0,0,0,0,0,0,269.5, 2.3, 1.6,0,0,364,364,364,1684,270.2,0,96,4.199,4.198,4.199,0,0,0,0,77.36,17.710511721592,0,41,Motors_Started,
500,2021-09-06 02:47:58,0,0,0,,,17.710511721592,0.328084,0,0,0,0,0,17.710511721592,0,0,0,0,0,0,269.4, 2.3, 1.6,0,0,364,364,364,1684,270.2,0,96,4.199,4.198,4.199,0,0,0,0,77.36,17.710511721592,0,41,Motors_Started,
600,2021-09-06 02:47:58,0,0,0,,,17.710511721592,0.328084,0,0,0,0,0,17.710511721592,0,0,0,0,0,0,269.3, 2.3, 1.6,0,0,364,364,364,1684,270.2,0,96,4.199,4.198,4.199,0,0,0,0,77.36,17.710511721592,0,41,Motors_Started,
700,2021-09-06 02:47:58,0,0,0,,,17.710511721592,0.328084,0,0,0,0,0,17.710511721592,0,0,0,0,0,0,269.2, 2.3, 1.6,0,0,1024,1024,1024,1024,270.1,0,96,4.199,4.198,4.199,0,0,0,0,77.36,17.710511721592,0,41,Motors_Started,
800,2021-09-06 02:47:58,0,0,0,,,17.710511721592,0.328084,0,0,0,0,0,17.710511721592,0,0,0,0,0,0,269.2, 2.3, 1.6,0,0,1024,1024,1024,1024,270,0,96,4.199,4.198,4.199,0,0,0,0,77.36,17.710511721592,0,41,Motors_Started,Setting new Return-To-Home altitude to 61m (200 ft). Data Recorder File Index is 25. Setting new Maximum Flight Altitude to 30m (98 ft)
900,2021-09-06 02:47:58,0,0,0,,,17.710511721592,0.328084,0,0,0,0,0,17.710511721592,0,0,0,0,0,0,269.3, 2.3, 1.6,0,0,1024,1024,1024,1024,269.9,0,96,4.199,4.198,4.199,0,0,0,0,77.36,17.710511721592,0,41,Motors_Started,
1000,2021-09-06 02:47:59,0,0,0,,,17.710511721592,0.328084,0,0,0,0,0,17.710511721592,0,0,0,0,0,0,269.4, 2.3, 1.5,0,0,1024,1024,1024,1024,270,0,96,4.199,4.198,4.199,0,0,0,0,77.36,17.710511721592,0,41,Motors_Started,
1100,2021-09-06 02:47:59,0,0,0,,,17.710511721592,0.328084,0,0,0,0,0,17.710511721592,0,0,0,0,0,0,267.9, 2.5, 1.5,0,0,1024,1024,1024,1024,269.5,0,96,4.199,4.198,4.199,0,0,0,0,77.36,17.710511721592,0,41,Motors_Started,
1200,2021-09-06 02:47:59,0,0,0,,,17.710511721592,0.328084,0,0,0,0,0,17.710511721592,0,0,0,0,0,0,267.7, 2.4, 1.5,0,0,1024,1024,1024,1024,268.8,0,96,4.199,4.198,4.199,0,0,0,0,77.36,17.710511721592,0,41,Motors_Started,
1300,2021-09-06 02:47:59,0,0,0,,,17.710511721592,0.328084,0,0,0,0,12.663,17.710511721592,0,0,0,0,0,0,267.7, 2.4, 1.5,0,0,1024,1024,1024,1024,268.6,0,96,4.199,4.198,4.199,0,0,0,2.188,77.36,17.710511721592,0,41,Motors_Started,
1400,2021-09-06 02:47:59,0,0,0,,,17.710511721592,0.328084,0,0,0,0,12.663,17.710511721592,0,0,0,0,0,0,267.7, 2.4, 1.5,0,0,1024,1024,1024,1024,268.5,0,96,4.199,4.198,4.199,0,0,0,2.188,77.36,17.710511721592,0,41,Motors_Started,
1500,2021-09-06 02:47:59,0,0,0,,,17.710511721592,0.328084,0,0,0,0,12.663,17.710511721592,0,0,0,0,0,0,267.7, 2.4, 1.5,0,0,1024,1024,1024,1024,268.5,0,96,4.199,4.198,4.199,0,0,0,2.188,77.36,17.710511721592,0,41,Motors_Started,
1600,2021-09-06 02:47:59,0,0,0,,,17.710511721592,0.328084,0,0,0,0,12.663,17.710511721592,0,0,0,0,0,0,267.7, 2.4, 1.5,0,0,1024,1024,1024,1024,268.4,0,96,4.199,4.198,4.199,0,0,0,2.188,77.36,17.710511721592,0,10,Assisted_Takeoff,
1700,2021-09-06 02:47:59,0,0,0,,,17.710511721592,0.328084,0,0,0,0,12.663,17.710511721592,0,0,0,0,0,0,267.6, 2.4, 1.5,0,0,1024,1024,1024,1024,268.4,0,96,4.199,4.198,4.199,0,0,0,2.188,77.36,17.710511721592,0,10,Assisted_Takeoff,
1800,2021-09-06 02:47:59,0,0,0,,,17.710511721592,0.328084,0,0,0,0,12.663,17.710511721592,0,0,0,0,0,0,267.6, 2.4, 1.5,0,0,1024,1024,1024,1024,268.4,0,96,4.199,4.198,4.199,0,0,0,2.188,77.36,17.710511721592,0,10,Assisted_Takeoff,
1900,2021-09-06 02:47:59,0,0,0,,,17.710511721592,0.328084,0,0,0,0,12.663,17.710511721592,0,0,0,0,0,0,267.6, 2.4, 1.5,0,0,1024,1024,1024,1024,268.4,0,96,4.199,4.198,4.199,0,0,0,2.188,77.36,17.710511721592,0,10,Assisted_Takeoff,
2000,2021-09-06 02:48:00,0,0,0,,,17.710511721592,0.328084,0,0,0,0,12.663,17.710511721592,0,0,0,0,0,0,267.6, 2.4, 1.5,0,0,1024,1024,1024,1024,268.4,0,96,4.199,4.198,4.199,0,0,0,2.188,77.36,17.710511721592,0,10,Assisted_Takeoff,
2100,2021-09-06 02:48:00,0,0,0,,,17.710511721592,0.328084,0,0,0,0,12.663,17.710511721592,0,0,0,0,0,0,267.6, 2.4, 1.5,0,0,1024,1024,1024,1024,268.4,0,96,4.199,4.198,4.199,0,0,0,2.188,77.36,17.710511721592,0,10,Assisted_Takeoff,
2200,2021-09-06 02:48:00,0,0,0,,,17.710511721592,0.328084,0,0,0,0,12.663,17.710511721592,0,0,0,0,0,0,267.6, 2.4, 1.5,0,0,1024,1024,1024,1024,268.3,0,96,4.199,4.198,4.199,0,0,0,2.188,77.36,17.710511721592,0,10,Assisted_Takeoff,
2300,2021-09-06 02:48:00,0,0,0,,,17.710511721592,0.328084,0,0,0,0,12.584,17.710511721592,0,0,0,0,0,0,267.6, 2.4, 1.5,0,0,1024,1024,1024,1024,268.3,0,96,4.254,4.253,4.256,0,0,0,3.913,77.36,17.710511721592,0,10,Assisted_Takeoff,
2400,2021-09-06 02:48:00,0,0,0,,,17.710511721592,0.328084,0,0,0,0,12.584,17.710511721592,0,0,0,0,0,0,267.6, 2.4, 1.5,0,0,1024,1024,1024,1024,268.3,0,96,4.254,4.253,4.256,0,0,0,3.913,77.36,17.710511721592,0,10,Assisted_Takeoff,
2500,2021-09-06 02:48:00,0,0,0,,,17.710511721592,0.328084,0,0,0,0,12.584,17.710511721592,0,0,0,0,0,0,267.6, 2.4, 1.5,0,0,1024,1024,1024,1024,268.3,0,96,4.254,4.253,4.256,0,0,0,3.913,77.36,17.710511721592,0,10,Assisted_Takeoff,
2600,2021-09-06 02:48:00,0,0,0,,,17.710511721592,0.328084,0,0,0,0,12.584,17.710511721592,0,0,0,0,0,0,267.6, 2.4, 1.5,0,0,1024,1024,1024,1024,268.3,0,96,4.254,4.253,4.256,0,0,0,3.913,77.36,17.710511721592,0,10,Assisted_Takeoff,
2700,2021-09-06 02:48:00,0,0,0,,,17.710511721592,0.328084,0,0,0,0,12.584,17.710511721592,0,0,0,0,0,0,267.6, 2.4, 1.5,0,0,1024,1024,1024,1024,268.3,0,96,4.254,4.253,4.256,0,0,0,3.913,77.36,17.710511721592,0,10,Assisted_Takeoff,
2800,2021-09-06 02:48:00,0,0,0,,,17.710511721592,0.328084,0,0,0,0,12.584,17.710511721592,0,0,0,0,0,0,267.6, 2.4, 1.5,0,0,1024,1024,1024,1024,268.3,0,96,4.254,4.253,4.256,0,0,0,3.913,77.36,17.710511721592,0,10,Assisted_Takeoff,
2900,2021-09-06 02:48:00,0,0,0,,,17.710511721592,0.328084,0,0,7,0,12.584,17.710511721592,0,0,0,0,0,0,267.6, 2.4, 1.5,0,0,1024,1024,1024,1024,268.3,0,96,4.254,4.253,4.256,0,0,0,3.913,77.36,17.710511721592,0,10,Assisted_Takeoff,
3000,2021-09-06 02:48:01,0,0,0,,,17.710511721592,0.328084,0,0,7,0,12.584,17.710511721592,0,0,0,0,0,0,267.6, 2.4, 1.5,0,0,1024,1024,1024,1024,268.3,0,96,4.254,4.253,4.256,0,0,0,3.913,77.36,17.710511721592,0,10,Assisted_Takeoff,
3100,2021-09-06 02:48:01,0,0,0,,,17.710511721592,0.328084,0,0,7,0,12.584,17.710511721592,0,0,0,0,0,0,267.6, 2.4, 1.5,0,0,1024,1024,1024,1024,268.3,0,96,4.254,4.253,4.256,0,0,0,3.913,77.36,17.710511721592,0,10,Assisted_Takeoff,
3200,2021-09-06 02:48:01,0,0,0,,,17.710511721592,0.328084,0,0,7,0,12.584,17.710511721592,0,0,0,0,0,0,267.5, 2.4, 1.5,0,0,1024,1024,1024,1024,268.3,0,96,4.254,4.253,4.256,0,0,0,3.913,77.36,17.710511721592,0,10,Assisted_Takeoff,
3300,2021-09-06 02:48:01,0,0,0,,,17.710511721592,0.328084,0,0,7,0,12.763,17.710511721592,0,0,0,0,0,0,267.5, 2.4, 1.5,0,0,1024,1024,1024,1024,268.3,0,96,4.256,4.253,4.255,0,0,0,1.754,77.36,17.710511721592,0,10,Assisted_Takeoff,
3400,2021-09-06 02:48:01,0,0,0,,,17.710511721592,0.328084,0,0,7,0,12.763,17.710511721592,0,0,0,0,0,0,267.5, 2.4, 1.5,0,0,1024,1024,1024,1024,268.3,0,96,4.256,4.253,4.255,0,0,0,1.754,77.36,17.710511721592,0,10,Assisted_Takeoff,
3500,2021-09-06 02:48:01,0,0,0,,,17.710511721592,0.328084,0,0,7,0,12.763,17.710511721592,0,0,0,0,0,0,267.5, 2.4, 1.5,0,0,1024,1024,1114,1024,268.3,0,96,4.256,4.253,4.255,0,0,0,1.754,77.36,17.710511721592,0,10,Assisted_Takeoff,
3600,2021-09-06 02:48:01,0,0,0,,,17.710511721592,0.328084,0,0,7,0,12.763,17.710511721592,0,0,0,0,0,0,267.5, 2.4, 1.5,0,0,1024,1024,1115,1024,268.3,0,96,4.256,4.253,4.255,0,0,0,1.754,77.36,17.710511721592,0,10,Assisted_Takeoff,
3700,2021-09-06 02:48:01,0,0,0,,,17.710511721592,0.328084,0,0,7,0,12.763,17.710511721592,0,0,0,0,0,0,267.5, 2.4, 1.5,0,0,1024,1024,1115,1024,268.3,0,96,4.256,4.253,4.255,0,0,0,1.754,77.36,17.710511721592,0,10,Assisted_Takeoff,
3800,2021-09-06 02:48:01,0,0,0,,,17.710511721592,0.328084,0,0,7,0,12.763,17.710511721592,0,0,0,0,0,0,267.5, 2.4, 1.5,0,0,1024,1024,1119,1024,268.3,0,96,4.256,4.253,4.255,0,0,0,1.754,77.36,17.710511721592,0,10,Assisted_Takeoff,
3900,2021-09-06 02:48:01,0,0,0,,,17.710511721592,0.328084,0,0,7,0,12.763,17.710511721592,0,0,0,0,0,0,267.5, 2.3, 1.5,0,0,1024,1024,1113,1024,268.3,0,96,4.256,4.253,4.255,0,0,0,1.754,77.36,17.710511721592,0,10,Assisted_Takeoff,
4000,2021-09-06 02:48:02,0,0,0,,,17.710511721592,0.328084,0,0,7,0,12.763,17.710511721592,0,0,0,0,0,0,267.5, 2.3, 1.5,0,0,1024,1024,1147,1024,268.2,0,96,4.256,4.253,4.255,0,0,0,1.754,77.36,17.710511721592,0,10,Assisted_Takeoff,
4100,2021-09-06 02:48:02,0,0,0,,,17.710511721592,0.328084,0,0,7,0,12.763,17.710511721592,0,0,0,0,0,0,267.2, 1.2, 1.5,0,0,1024,1024,1203,1024,268.2,0,96,4.256,4.253,4.255,0,0,0,1.754,77.36,17.710511721592,0,10,Assisted_Takeoff,
4200,2021-09-06 02:48:02,0,0,0,,,17.710511721592,0.328084,0,0,7,0,12.763,17.710511721592,0,0,0,0,0,0,266.9, -2.2, 0.9,0,0,1024,1024,1203,1024,268.1,0,96,4.256,4.253,4.255,0,0,0,1.754,77.36,17.710511721592,0,10,Assisted_Takeoff,
4300,2021-09-06 02:48:02,0,0,0,,,17.710511721592,0.328084,0,0,7,0,12.763,17.710511721592,0,0,0,0,0,-0.223694,266.4, -3.3, 0.3,0,0,1024,1024,1197,1024,268,0,96,4.244,4.236,4.232,0,0,0,1.859,77.36,17.710511721592,0,10,Assisted_Takeoff,
4400,2021-09-06 02:48:02,0,0,0,,,17.710511721592,0.328084,0.223694,0,7,0,12.763,17.710511721592,0,0.223694,0,0,-0.223694,-0.671082,266.5, -1.9, -0.2,0,0,1024,1024,1162,1024,268,0,96,4.244,4.236,4.232,0,0,0,1.859,77.36,17.710511721592,0,6,P-GPS,
4500,2021-09-06 02:48:02,0,0,0,,,17.710511721592,0.328084,0.223694,0,7,0,12.763,17.710511721592,0,0.223694,0,0,-0.223694,-0.671082,266.5, -0.2, -0.4,0,0,1024,1024,1162,1024,268,0,96,4.244,4.236,4.232,0,0,0,1.859,77.36,17.710511721592,0,6,P-GPS,
4600,2021-09-06 02:48:02,0,0,0.328084,,,18.038595721592,0.328084,0.223694,0,7,0,12.763,18.038595721592,0.328084,0.223694,0,0,-0.223694,-0.447388,266.6, 0.7, -0.5,0,0,1024,1024,1168,1024,268,0,96,4.244,4.236,4.232,0,0,0,1.859,77.36,18.038595721592,0.328084,6,P-GPS,
4700,2021-09-06 02:48:02,0,0,0.328084,,,18.038595721592,0.328084,0.223694,0,7,0,12.763,18.038595721592,0.328084,0.223694,0,0,-0.223694,-0.447388,266.8, 0.8, -0.2,0,0,1024,1024,1180,1024,268,0,96,4.244,4.236,4.232,0,0,0,1.859,77.36,18.038595721592,0.328084,6,P-GPS,
4800,2021-09-06 02:48:02,0,0,0.328084,,,18.038595721592,0.656168,0,0,7,0,12.763,18.038595721592,0.328084,0.223694,0,0,0,-0.447388,267, 0.7, -0.2,0,0,1024,1024,1199,1024,268,0,96,4.244,4.236,4.232,0,0,0,1.859,77.36,18.038595721592,0.328084,6,P-GPS,
4900,2021-09-06 02:48:02,0,0,0.328084,,,18.038595721592,0.656168,0,0,7,0,12.763,18.038595721592,0.328084,0.223694,0,0,0,-0.447388,267.2, 1.4, -0.2,0,0,1024,1024,1227,1024,268,0,96,4.244,4.236,4.232,0,0,0,1.859,77.36,18.038595721592,0.328084,6,P-GPS,
5000,2021-09-06 02:48:03,0,0,0.656168,,,18.366679721592,0.656168,0,0,7,0,12.763,18.366679721592,0.656168,0.223694,0,0,0,-0.447388,267.2, 1.1, -0.8,0,0,1024,1024,1244,1024,268,0,96,4.244,4.236,4.232,0,0,0,1.859,77.36,18.366679721592,0.656168,6,P-GPS,
5100,2021-09-06 02:48:03,0,0,0.656168,,,18.366679721592,0.656168,0,0,7,0,12.763,18.366679721592,0.656168,0.223694,0,0,0,-0.671082,267.1, 0.6, -1,0,0,1024,1024,1304,1024,268,0,96,4.244,4.236,4.232,0,0,0,1.859,77.36,18.366679721592,0.656168,6,P-GPS,
5200,2021-09-06 02:48:03,0,0,0.656168,,,18.366679721592,0.984252,0,0,7,0,12.763,18.366679721592,0.656168,0.223694,0,0,0,-0.894776,267.1, 0, -0.9,0,0,1024,1024,1361,1024,268,0,96,4.244,4.236,4.232,0,0,0,1.859,77.36,18.366679721592,0.656168,6,P-GPS,
5300,2021-09-06 02:48:03,0,0,0.984252,,,18.694763721592,0.984252,0,0,7,0,12.471,18.694763721592,0.984252,0.223694,0,0,0,-1.342164,267.1, -0.4, -0.8,0,0,1024,1024,1364,1024,268,0,96,4.139,4.137,4.135,0,0,0,4.32,77.36,18.694763721592,0.984252,6,P-GPS,
5400,2021-09-06 02:48:03,0,0,1.312336,,,19.022847721592,1.312336,0,0,7,0,12.471,19.022847721592,1.312336,0.223694,0,0,0,-1.565858,267.1, -0.8, -0.7,0,0,1024,1024,1364,1024,268,0,96,4.139,4.137,4.135,0,0,0,4.32,77.36,19.022847721592,1.312336,6,P-GPS,
5500,2021-09-06 02:48:03,0,0,1.312336,,,19.022847721592,1.64042,0,0,7,0,12.471,19.022847721592,1.312336,0.223694,0,0,0,-1.789552,267, -1.1, -0.9,0,0,1024,1024,1364,1024,268,0,96,4.139,4.137,4.135,0,0,0,4.32,77.36,19.022847721592,1.312336,6,P-GPS,
5600,2021-09-06 02:48:03,0,0,1.64042,,,19.350931721592,1.968504,0,0,7,0,12.471,19.350931721592,1.64042,0.223694,0,0,0,-2.23694,266.9, -1.2, -1,0,0,1024,1024,1364,1024,268,0,96,4.139,4.137,4.135,0,0,0,4.32,77.36,19.350931721592,1.64042,6,P-GPS,
5700,2021-09-06 02:48:03,0,0,1.968504,,,19.679015721592,2.296588,0,0,7,0,12.471,19.679015721592,1.968504,0.223694,0,0,0,-2.460634,266.9, -1, -1.5,0,0,1024,1024,1364,1024,268,0,96,4.139,4.137,4.135,0,0,0,4.32,77.36,19.679015721592,1.968504,6,P-GPS,
5800,2021-09-06 02:48:03,0,0,2.624672,,,20.335183721592,2.624672,0,0,7,0,12.471,20.335183721592,2.624672,0.223694,0,0,0,-2.684328,266.9, -1, -1.6,0,0,1024,1024,1362,1024,268,0,96,4.139,4.137,4.135,0,0,0,4.32,77.36,20.335183721592,2.624672,6,P-GPS,
5900,2021-09-06 02:48:03,0,0,2.952756,,,20.663267721592,3.28084,0,0,7,0,12.471,20.663267721592,2.952756,0.223694,0,0,0,-2.908022,266.9, -1.3, -1.1,0,0,1024,1024,1362,1024,268,0,96,4.139,4.137,4.135,0,0,0,4.32,77.36,20.663267721592,2.952756,6,P-GPS,
6000,2021-09-06 02:48:04,0,0,3.28084,,,20.991351721592,3.608924,0,0,7,0,12.471,20.991351721592,3.28084,0.223694,0,0,0,-3.131716,266.8, -0.9, -0.9,0,0,1024,1024,1357,1024,268,0,96,4.139,4.137,4.135,0,0,0,4.32,77.36,20.991351721592,3.28084,6,P-GPS,
6100,2021-09-06 02:48:04,0,0,3.937008,,,21.647519721592,4.265092,0,0,7,0,12.471,21.647519721592,3.937008,0.223694,0,0,0,-3.35541,266.9, -0.7, -1.1,0,0,1024,1024,1356,1024,268,0,96,4.139,4.137,4.135,0,0,0,4.32,77.36,21.647519721592,3.937008,6,P-GPS,
6200,2021-09-06 02:48:04,0,0,4.265092,,,21.975603721592,4.593176,0,0,7,0,12.471,21.975603721592,4.265092,0.223694,0,0,0,-3.579104,267, -0.8, -1.2,0,0,1024,1024,1347,1024,268,0,96,4.139,4.137,4.135,0,0,0,4.32,77.36,21.975603721592,4.265092,6,P-GPS,
6300,2021-09-06 02:48:04,0,0,4.92126,,,22.631771721592,5.249344,0,0,7,0,12.299,22.631771721592,4.92126,0.223694,0,0,0,-3.579104,267.1, -0.9, -1.2,0,0,1024,1024,1347,1024,268,0,96,4.087,4.09,4.09,0,0,0,7.381,77.36,22.631771721592,4.92126,6,P-GPS,
6400,2021-09-06 02:48:04,0,0,5.577428,,,23.287939721592,5.905512,0,0,7,0,12.299,23.287939721592,5.577428,0.223694,0,0,0,-3.579104,267.1, -0.9, -0.8,0,0,1024,1024,1329,1024,268,0,96,4.087,4.09,4.09,0,0,0,7.381,77.36,23.287939721592,5.577428,6,P-GPS,
6500,2021-09-06 02:48:04,0,0,5.905512,,,23.616023721592,6.56168,0,0,7,0,12.299,23.616023721592,5.905512,0.223694,0,0,0,-3.579104,267.1, -0.8, -0.5,0,0,1024,1024,1316,1024,268,0,96,4.087,4.09,4.09,0,0,0,7.381,77.36,23.616023721592,5.905512,6,P-GPS,
6600,2021-09-06 02:48:04,0,0,6.56168,,,24.272191721592,7.217848,0,0,7,0,12.299,24.272191721592,6.56168,0.223694,0,0,0,-3.35541,267.1, -0.9, 0,0,0,1024,1024,1153,1024,268,0,96,4.087,4.09,4.09,0,0,0,7.381,77.36,24.272191721592,6.56168,6,P-GPS,
6700,2021-09-06 02:48:04,0,0,6.889764,,,24.600275721592,7.545932,0,0,7,0,12.299,24.600275721592,6.889764,0.223694,0,0,0,-2.908022,267.3, -0.9, 0,0,0,1024,1024,1024,1024,268,0,96,4.087,4.09,4.09,0,0,0,7.381,77.36,24.600275721592,6.889764,6,P-GPS,
6800,2021-09-06 02:48:04,0,0,7.545932,,,25.256443721592,7.874016,0,0,7,0,12.299,25.256443721592,7.545932,0.223694,0,0,0,-2.23694,267.3, -0.7, 0.1,0,0,1024,1024,1024,1024,268,0,96,4.087,4.09,4.09,0,0,0,7.381,77.36,25.256443721592,7.545932,6,P-GPS,
6900,2021-09-06 02:48:04,0,0,7.874016,,,25.584527721592,8.2021,0,0,7,0,12.299,25.584527721592,7.874016,0.223694,0,0,0,-1.342164,298.2, -0.7, 0.1,0,0,1024,1024,1217,1024,268,0,96,4.087,4.09,4.09,0,0,0,7.381,77.36,25.584527721592,7.874016,6,P-GPS,
7000,2021-09-06 02:48:05,0,0,7.874016,,,25.584527721592,8.530184,0,0,7,0,12.299,25.584527721592,7.874016,0.223694,0,0,0,-0.671082,334.6, -0.9, 0,0,0,1024,1024,1323,1024,268,0,96,4.087,4.09,4.09,0,0,0,7.381,77.36,25.584527721592,7.874016,6,P-GPS,
7100,2021-09-06 02:48:05,0,0,7.874016,,,25.584527721592,8.530184,0,0,7,0,12.299,25.584527721592,7.874016,0.223694,0,0,0,-0.671082,348.1, -1.4, 0,0,0,1024,1024,1329,1024,268,0,96,4.087,4.09,4.09,0,0,0,7.381,77.36,25.584527721592,7.874016,6,P-GPS,
7200,2021-09-06 02:48:05,0,0,8.2021,,,25.912611721592,8.858268,0,0,7,0,12.299,25.912611721592,8.2021,0.223694,0,0,0,-1.342164,349.7, -1.2, 0,0,0,1024,1024,1329,1024,268,0,96,4.087,4.09,4.09,0,0,0,7.381,77.36,25.912611721592,8.2021,6,P-GPS,
7300,2021-09-06 02:48:05,0,0,8.530184,,,26.240695721592,9.186352,0,0,7,0,12.297,26.240695721592,8.530184,0.223694,0,0,0,-2.013246,349.9, -0.5, 0.3,0,0,1024,1024,1329,1024,268,0,96,4.161,4.169,4.171,0,0,0,8.074,77.36,26.240695721592,8.530184,6,P-GPS,
7400,2021-09-06 02:48:05,0,0,8.858268,,,26.568779721592,9.514436,0,0,7,0,12.297,26.568779721592,8.858268,0.223694,0,0,0,-2.460634,349.9, -0.2, 0.3,0,0,1024,1024,1292,1024,268,0,96,4.161,4.169,4.171,0,0,0,8.074,77.36,26.568779721592,8.858268,6,P-GPS,
7500,2021-09-06 02:48:05,0,0,9.186352,,,26.896863721592,10.170604,0,0,7,0,12.297,26.896863721592,9.186352,0.223694,0,0,0,-2.684328,350, -0.1, 0.1,0,0,1024,1024,1124,1024,268,0,96,4.161,4.169,4.171,0,0,0,8.074,77.36,26.896863721592,9.186352,6,P-GPS,
7600,2021-09-06 02:48:05,0,0,9.514436,,,27.224947721592,10.498688,0,0,7,0,12.297,27.224947721592,9.514436,0.223694,0,0,0,-2.23694,350.1, 0.2, 0,0,0,1024,1024,1123,1024,268,0,96,4.161,4.169,4.171,0,0,0,8.074,77.36,27.224947721592,9.514436,6,P-GPS,
7700,2021-09-06 02:48:05,0,0,9.84252,,,27.553031721592,10.826772,0,0,7,0,12.297,27.553031721592,9.84252,0.223694,0,0,0,-1.565858,350.1, 0.3, -0.1,0,0,1024,1024,1390,1024,268,0,96,4.161,4.169,4.171,0,0,0,8.074,77.36,27.553031721592,9.84252,6,P-GPS,
7800,2021-09-06 02:48:05,0,0,10.170604,,,27.881115721592,10.826772,0,0,7,0,12.297,27.881115721592,10.170604,0.223694,0,0,0,-1.11847,350, 0.1, -0.2,0,0,1024,1024,1200,1024,268,0,96,4.161,4.169,4.171,0,0,0,8.074,77.36,27.881115721592,10.170604,6,P-GPS,
7900,2021-09-06 02:48:05,0,0,10.170604,,,27.881115721592,11.154856,0,0,7,0,12.297,27.881115721592,10.170604,0.223694,0,0,0,-1.789552,349.9, -0.3, -0.2,0,0,1024,1024,1024,1024,268,0,96,4.161,4.169,4.171,0,0,0,8.074,77.36,27.881115721592,10.170604,6,P-GPS,
8000,2021-09-06 02:48:06,0,0,10.498688,,,28.209199721592,11.48294,0,0,7,0,12.297,28.209199721592,10.498688,0.223694,0,0,0,-1.789552,350, -0.1, -0.1,0,0,1024,1024,1024,1024,268,0,96,4.161,4.169,4.171,0,0,0,8.074,77.36,28.209199721592,10.498688,6,P-GPS,
8100,2021-09-06 02:48:06,0,0,10.826772,,,28.537283721592,11.811024,0,0,7,0,12.297,28.537283721592,10.826772,0.223694,0,0,0,-1.11847,350.1, 0.3, -0.1,0,0,1024,1024,1024,1024,268,0,96,4.161,4.169,4.171,0,0,0,8.074,77.36,28.537283721592,10.826772,6,P-GPS,
8200,2021-09-06 02:48:06,0,0,10.826772,,,28.537283721592,12.139108,0,0,7,0,12.297,28.537283721592,10.826772,0.223694,0,0,0,-0.447388,350.1, 0.3, -0.3,0,0,1024,1024,1024,1024,268,0,96,4.161,4.169,4.171,0,0,0,8.074,77.36,28.537283721592,10.826772,6,P-GPS,
8300,2021-09-06 02:48:06,0,0,10.826772,,,28.537283721592,12.139108,0,0,7,0,12.229,28.537283721592,10.826772,0.223694,0,0,0,-0.223694,350.1, 0, -0.4,0,0,1024,1024,1024,1024,268,0,96,4.134,4.136,4.085,0,0,0,7.056,77.36,28.537283721592,10.826772,6,P-GPS,
8400,2021-09-06 02:48:06,0,0,11.154856,,,28.865367721592,12.139108,0,0,7,0,12.229,28.865367721592,11.154856,0.223694,0,0,0,0,350, -0.1, -0.5,0,0,1024,1024,1024,1024,268,0,96,4.134,4.136,4.085,0,0,0,7.056,77.36,28.865367721592,11.154856,6,P-GPS,
8500,2021-09-06 02:48:06,0,0,11.154856,,,28.865367721592,12.467192,0,0,7,0,12.229,28.865367721592,11.154856,0.223694,0,0,0,0,350, -0.1, -0.7,0,0,1024,1024,1024,1024,268,0,96,4.134,4.136,4.085,0,0,0,7.056,77.36,28.865367721592,11.154856,6,P-GPS,
8600,2021-09-06 02:48:06,0,0,11.154856,,,28.865367721592,12.467192,0,0,7,0,12.229,28.865367721592,11.154856,0.223694,0,0,0,0,350, -0.2, -0.9,0,0,1024,1024,1024,1024,268,0,96,4.134,4.136,4.085,0,0,0,7.056,77.36,28.865367721592,11.154856,6,P-GPS,
8700,2021-09-06 02:48:06,0,0,11.154856,,,28.865367721592,12.467192,0,0,7,0,12.229,28.865367721592,11.154856,0.223694,0,0,0,0,350, -0.2, -1,0,0,1024,1024,1024,1024,268,0,96,4.134,4.136,4.085,0,0,0,7.056,77.36,28.865367721592,11.154856,6,P-GPS,
8800,2021-09-06 02:48:06,0,0,11.154856,,,28.865367721592,12.467192,0,0,7,0,12.229,28.865367721592,11.154856,0.223694,0,0,0,0,350, -0.2, -1,0,0,1024,1024,1024,1024,268,0,96,4.134,4.136,4.085,0,0,0,7.056,77.36,28.865367721592,11.154856,6,P-GPS,
8900,2021-09-06 02:48:06,0,0,11.154856,,,28.865367721592,12.139108,0,0,7,0,12.229,28.865367721592,11.154856,0.223694,0,0,0,0,350, -0.1, -0.8,0,0,1024,1024,1024,1024,268,0,96,4.134,4.136,4.085,0,0,0,7.056,77.36,28.865367721592,11.154856,6,P-GPS,
9000,2021-09-06 02:48:07,0,0,10.826772,,,28.537283721592,12.139108,0,0,7,0,12.229,28.865367721592,11.154856,0.223694,0,0,0,0,350, -0.2, -0.7,0,0,1024,1024,1024,1024,268,0,96,4.134,4.136,4.085,0,0,0,7.056,77.36,28.537283721592,10.826772,6,P-GPS,
9100,2021-09-06 02:48:07,0,0,10.826772,,,28.537283721592,12.467192,0,0,7,0,12.229,28.865367721592,11.154856,0.223694,0,0,0,0,349.9, -0.3, -0.6,0,0,1024,1024,1024,1024,268,0,96,4.134,4.136,4.085,0,0,0,7.056,77.36,28.537283721592,10.826772,6,P-GPS,
9200,2021-09-06 02:48:07,0,0,10.826772,,,28.537283721592,12.139108,0,0,7,0,12.229,28.865367721592,11.154856,0.223694,0,0,0,0,349.9, -0.3, -0.6,0,0,1024,1024,1024,1024,268,0,96,4.134,4.136,4.085,0,0,0,7.056,77.36,28.537283721592,10.826772,6,P-GPS,
9300,2021-09-06 02:48:07,0,0,10.826772,,,28.537283721592,12.139108,0,0,7,0,12.42,28.865367721592,11.154856,0.223694,0,0,0,0,350, -0.5, -0.7,0,0,1024,1024,1024,1024,268,0,96,4.113,4.116,4.113,0,0,0,6.025,77.54,28.537283721592,10.826772,6,P-GPS,
9400,2021-09-06 02:48:07,0,0,10.826772,,,28.537283721592,12.139108,0,0,7,0,12.42,28.865367721592,11.154856,0.223694,0,0,0,0,350, -0.6, -0.7,0,0,1024,1024,1024,1024,268,0,96,4.113,4.116,4.113,0,0,0,6.025,77.54,28.537283721592,10.826772,6,P-GPS,
9500,2021-09-06 02:48:07,0,0,10.826772,,,28.537283721592,12.139108,0,0,7,0,12.42,28.865367721592,11.154856,0.223694,0,0,0,0,350, -0.6, -0.7,0,0,1024,1024,1024,1024,268,0,96,4.113,4.116,4.113,0,0,0,6.025,77.54,28.537283721592,10.826772,6,P-GPS,
9600,2021-09-06 02:48:07,0,0,10.826772,,,28.537283721592,12.139108,0,0,7,0,12.42,28.865367721592,11.154856,0.223694,0,0,0,0,350, -0.6, -0.6,0,0,1024,1024,1024,1024,268,0,96,4.113,4.116,4.113,0,0,0,6.025,77.54,28.537283721592,10.826772,6,P-GPS,
9700,2021-09-06 02:48:07,0,0,10.826772,,,28.537283721592,11.811024,0,0,7,0,12.42,28.865367721592,11.154856,0.223694,0,0,0,0,350, -0.6, -0.4,0,0,1024,1024,1024,1024,268,0,96,4.113,4.116,4.113,0,0,0,6.025,77.54,28.537283721592,10.826772,6,P-GPS,
9800,2021-09-06 02:48:07,0,0,10.826772,,,28.537283721592,12.139108,0,0,7,0,12.42,28.865367721592,11.154856,0.223694,0,0,0,0,350.1, -0.7, -0.4,0,0,1024,1024,1024,1024,268,0,96,4.113,4.116,4.113,0,0,0,6.025,77.54,28.537283721592,10.826772,6,P-GPS,
9900,2021-09-06 02:48:07,0,0,10.826772,,,28.537283721592,11.811024,0,0,7,0,12.42,28.865367721592,11.154856,0.223694,0,0,0,0,350.1, -0.8, -0.3,0,0,1024,1024,1024,1024,268,0,96,4.113,4.116,4.113,0,0,0,6.025,77.54,28.537283721592,10.826772,6,P-GPS,
10000,2021-09-06 02:48:08,0,0,10.826772,,,28.537283721592,11.811024,0,0,7,0,12.42,28.865367721592,11.154856,0.223694,0,0,0,0,350, -0.8, -0.3,0,0,1024,1024,1024,1024,268,0,96,4.113,4.116,4.113,0,0,0,6.025,77.54,28.537283721592,10.826772,6,P-GPS,
10100,2021-09-06 02:48:08,0,0,10.826772,,,28.537283721592,11.811024,0,0,7,0,12.42,28.865367721592,11.154856,0.223694,0,0,0,0,350, -0.8, -0.3,0,0,1024,1024,1024,1024,268,0,96,4.113,4.116,4.113,0,0,0,6.025,77.54,28.537283721592,10.826772,6,P-GPS,
10200,2021-09-06 02:48:08,0,0,10.826772,,,28.537283721592,12.139108,0,0,7,0,12.42,28.865367721592,11.154856,0.223694,0,0,0,0,350, -0.7, -0.4,0,0,1024,1024,1024,1024,268,0,96,4.113,4.116,4.113,0,0,0,6.025,77.54,28.537283721592,10.826772,6,P-GPS,
10300,2021-09-06 02:48:08,0,0,10.826772,,,28.537283721592,11.811024,0,0,7,0,12.33,28.865367721592,11.154856,0.223694,0,0,0,0,350, -0.6, -0.4,0,0,1024,1024,1024,1024,268,0,96,4.107,4.11,4.109,0,0,0,6.753,77.54,28.537283721592,10.826772,6,P-GPS,
10400,2021-09-06 02:48:08,0,0,10.826772,,,28.537283721592,11.811024,0,0,7,0,12.33,28.865367721592,11.154856,0.223694,0,0,0,0,349.9, -0.6, -0.3,0,0,1024,1024,1024,1024,268,0,96,4.107,4.11,4.109,0,0,0,6.753,77.54,28.537283721592,10.826772,6,P-GPS,
10500,2021-09-06 02:48:08,0,0,10.826772,,,28.537283721592,11.811024,0,0,7,0,12.33,28.865367721592,11.154856,0.223694,0,0,0,0,349.9, -0.6, -0.5,0,0,1024,1024,1024,1024,268,0,96,4.107,4.11,4.109,0,0,0,6.753,77.54,28.537283721592,10.826772,6,P-GPS,
10600,2021-09-06 02:48:08,0,0,10.826772,,,28.537283721592,11.811024,0,0,7,0,12.33,28.865367721592,11.154856,0.223694,0,0,0,0,350, -0.6, -0.8,0,0,1024,1024,1024,1024,268,0,96,4.107,4.11,4.109,0,0,0,6.753,77.54,28.537283721592,10.826772,6,P-GPS,
10700,2021-09-06 02:48:08,0,0,10.826772,,,28.537283721592,11.811024,0,0,7,0,12.33,28.865367721592,11.154856,0.223694,0,0,0,0,350, -0.7, -0.9,0,0,1024,1024,1024,1024,268,0,96,4.107,4.11,4.109,0,0,0,6.753,77.54,28.537283721592,10.826772,6,P-GPS,
10800,2021-09-06 02:48:08,0,0,10.826772,,,28.537283721592,11.811024,0,0,7,0,12.33,28.865367721592,11.154856,0.223694,0,0,0,0,350, -0.8, -0.7,0,0,1024,1024,1024,1024,268,0,96,4.107,4.11,4.109,0,0,0,6.753,77.54,28.537283721592,10.826772,6,P-GPS,
10900,2021-09-06 02:48:08,0,0,10.826772,,,28.537283721592,11.811024,0,0,10,0,12.33,28.865367721592,11.154856,0.223694,0,0,0,0,350.1, -0.8, -0.5,0,0,1024,1024,1024,1024,268,0,96,4.107,4.11,4.109,0,0,0,6.753,77.54,28.537283721592,10.826772,6,P-GPS,
11000,2021-09-06 02:48:09,0,0,10.826772,,,28.537283721592,11.811024,0,0,10,0,12.33,28.865367721592,11.154856,0.223694,0,0,0,0,350.1, -0.7, -0.6,0,0,1024,1024,1024,1024,268,0,96,4.107,4.11,4.109,0,0,0,6.753,77.54,28.537283721592,10.826772,6,P-GPS,
11100,2021-09-06 02:48:09,0,0,10.826772,,,28.537283721592,11.811024,0,0,10,0,12.33,28.865367721592,11.154856,0.223694,0,0,0,0,350.1, -0.7, -0.7,0,0,1024,1024,1024,1024,268,0,96,4.107,4.11,4.109,0,0,0,6.753,77.54,28.537283721592,10.826772,6,P-GPS,
11200,2021-09-06 02:48:09,0,0,10.826772,,,28.537283721592,11.811024,0,0,10,0,12.33,28.865367721592,11.154856,0.223694,0,0,0,0,350.1, -0.6, -0.8,0,0,1024,1024,1024,1024,268,0,96,4.107,4.11,4.109,0,0,0,6.753,77.54,28.537283721592,10.826772,6,P-GPS,
11300,2021-09-06 02:48:09,0,0,10.826772,,,28.537283721592,11.811024,0,0,10,0,12.311,28.865367721592,11.154856,0.223694,0,0,0,0,350.1, -0.7, -0.8,0,0,1024,1024,1024,1024,268,0,96,4.104,4.106,4.105,0,0,0,6.847,77.54,28.537283721592,10.826772,6,P-GPS,
11400,2021-09-06 02:48:09,0,0,10.826772,,,28.537283721592,11.811024,0,0,10,0,12.311,28.865367721592,11.154856,0.223694,0,0,0,0,350, -0.8, -0.8,0,0,1024,1024,1024,1024,268,0,96,4.104,4.106,4.105,0,0,0,6.847,77.54,28.537283721592,10.826772,6,P-GPS,
11500,2021-09-06 02:48:09,0,0,10.826772,,,28.537283721592,11.811024,0,0,10,0,12.311,28.865367721592,11.154856,0.223694,0,0,0,0,350, -0.8, -1,0,0,1024,1024,1024,1024,268,0,96,4.104,4.106,4.105,0,0,0,6.847,77.54,28.537283721592,10.826772,6,P-GPS,
11600,2021-09-06 02:48:09,47.5726823268315,-122.626668724063,10.826772,10.826772,17.710511721592,28.537283721592,11.811024,0,0,10,0,12.311,28.865367721592,11.154856,0.223694,0,0,0,0,349.9, -0.9, -1.3,0,0,1024,1024,1024,1024,268,0,96,4.104,4.106,4.105,0,0,0,6.847,77.54,28.537283721592,10.826772,6,P-GPS,GPS signal weak (Max altitude 98 ft) GPS signal weak. Fly with caution. Aircraft in Altitude Zone. Max altitude set to 98 ft (Code: 30014)
11700,2021-09-06 02:48:09,47.5726823293534,-122.626668686453,10.826772,10.826772,17.710511721592,28.537283721592,11.811024,0,0.0093030514788,10,0,12.311,28.865367721592,11.154856,0.223694,0.0093030514788,0,0,0,349.9, -0.8, -1.4,0,0,1024,1024,1024,1024,268,0,96,4.104,4.106,4.105,0,0,0,6.847,77.54,28.537283721592,10.826772,6,P-GPS,
11800,2021-09-06 02:48:09,47.5726833153074,-122.626668228288,10.826772,10.7939636,17.743320121592,28.537283721592,11.811024,0,0.38073163948,10,0,12.311,28.865367721592,11.154856,0.223694,0.38073163948,0,0,0,349.9, -0.6, -1.4,0,0,1024,1024,1024,1024,268,0,96,4.104,4.106,4.105,0,0,0,6.847,77.54,28.537283721592,10.826772,6,P-GPS,
11900,2021-09-06 02:48:09,47.5726834009414,-122.626668161937,10.826772,10.7939636,17.743320121592,28.537283721592,11.811024,0,0.41559712616,10,0,12.311,28.865367721592,11.154856,0.223694,0.41559712616,0,0,0,349.9, -0.5, -1.5,0,0,1024,1024,1024,1024,268,0,96,4.104,4.106,4.105,0,0,0,6.847,77.54,28.537283721592,10.826772,6,P-GPS,
12000,2021-09-06 02:48:10,47.5726840495148,-122.626667660854,10.826772,10.7939636,17.743320121592,28.537283721592,11.811024,0,0.68083007428,10,0,12.311,28.865367721592,11.154856,0.223694,0.68083007428,0,0,0,349.9, -0.5, -1.5,0,0,1024,1024,1024,1024,268,0,96,4.104,4.106,4.105,0,0,0,6.847,77.54,28.537283721592,10.826772,6,P-GPS,
12100,2021-09-06 02:48:10,47.5726841834325,-122.626667568548,10.826772,10.7939636,17.743320121592,28.537283721592,12.139108,0,0.73467193952,10,0,12.311,28.865367721592,11.154856,0.223694,0.73467193952,0,0,0,349.9, -0.7, -1.4,0,0,1024,1024,1024,1024,268,0,96,4.104,4.106,4.105,0,0,0,6.847,77.54,28.537283721592,10.826772,6,P-GPS,
12200,2021-09-06 02:48:10,47.5726847240131,-122.626667164587,10.826772,10.7939636,17.743320121592,28.537283721592,12.139108,0,0.95514110668,10,0,12.311,28.865367721592,11.154856,0.223694,0.95514110668,0,0,0,350, -0.8, -1.3,0,0,1024,1024,1024,1024,268,0,96,4.104,4.106,4.105,0,0,0,6.847,77.54,28.537283721592,10.826772,6,P-GPS,
12300,2021-09-06 02:48:10,47.5726848967824,-122.626667049546,10.826772,10.7939636,17.743320121592,28.537283721592,12.139108,0,1.02424215876,10,2,12.305,28.865367721592,11.154856,0.223694,1.02424215876,0,0,0,350, -1, -1.3,0,0,1024,1024,1024,1024,268,0,96,4.103,4.105,4.103,0,0,0,6.845,77.54,28.537283721592,10.826772,6,P-GPS,
12400,2021-09-06 02:48:10,47.5726853565663,-122.626666695078,10.826772,10.7939636,17.743320121592,28.537283721592,12.139108,0,1.21298560312,10,2,12.305,28.865367721592,11.154856,0.223694,1.21298560312,0,0,0,350, -1.1, -0.9,0,0,1024,1024,1024,1024,268,0,96,4.103,4.105,4.103,0,0,0,6.845,77.54,28.537283721592,10.826772,6,P-GPS,
12500,2021-09-06 02:48:10,47.5726855675769,-122.626666560793,10.826772,10.7939636,17.743320121592,28.537283721592,12.139108,0,1.29675201,10,2,12.305,28.865367721592,11.154856,0.223694,1.29675201,0,0,0,350, -1.1, -0.7,0,0,1024,1024,1024,1024,268,0,96,4.103,4.105,4.103,0,0,0,6.845,77.54,28.537283721592,10.826772,6,P-GPS,
12600,2021-09-06 02:48:10,47.5726861443786,-122.626665728347,10.826772,10.7939636,17.743320121592,28.537283721592,12.139108,0,1.57598102156,10,2,12.305,28.865367721592,11.154856,0.223694,1.57598102156,0,0,0,350.1, -1.1, -0.8,0,0,1024,1024,1024,1024,268,0,96,4.103,4.105,4.103,0,0,0,6.845,77.54,28.537283721592,10.826772,6,P-GPS,
12700,2021-09-06 02:48:10,47.5726864080724,-122.626665513492,10.826772,10.7939636,17.743320121592,28.537283721592,12.139108,0,1.68575464712,10,2,12.305,28.865367721592,11.154856,0.223694,1.68575464712,0,0,0,350, -1, -1,0,0,1024,1024,1024,1024,268,0,96,4.103,4.105,4.103,0,0,0,6.845,77.54,28.537283721592,10.826772,6,P-GPS,
12800,2021-09-06 02:48:10,47.5726867815667,-122.626664906457,10.826772,10.7939636,17.743320121592,28.537283721592,12.139108,0,1.87740491572,10,2,12.305,28.865367721592,11.154856,0.223694,1.87740491572,0,0,0,350, -1, -0.9,0,0,1024,1024,1024,1024,268,0,96,4.103,4.105,4.103,0,0,0,6.845,77.54,28.537283721592,10.826772,6,P-GPS,
12900,2021-09-06 02:48:11,47.5726870744158,-122.626664641465,10.826772,10.7939636,17.743320121592,28.537283721592,12.139108,0,2.00255255752,11,2,12.305,28.865367721592,11.154856,0.223694,2.00255255752,0,0,0,350, -1, -0.8,0,0,1024,1024,1024,1024,268,0,96,4.103,4.105,4.103,0,0,0,6.845,77.54,28.537283721592,10.826772,6,P-GPS,
13000,2021-09-06 02:48:11,47.5726873705398,-122.626663952506,10.826772,10.7939636,17.743320121592,28.537283721592,12.139108,0,2.18306765516,11,2,12.305,28.865367721592,11.154856,0.223694,2.18306765516,0,0,0,350, -0.9, -0.8,0,0,1024,1024,1024,1024,268,0,96,4.103,4.105,4.103,0,0,0,6.845,77.54,28.537283721592,10.826772,6,P-GPS,
13100,2021-09-06 02:48:11,47.5726876808137,-122.626663626641,10.826772,10.7939636,17.743320121592,28.537283721592,12.139108,0,2.3216536176,11,2,12.305,28.865367721592,11.154856,0.223694,2.3216536176,0,0,0,350, -0.9, -0.9,0,0,1024,1024,1024,1024,268,0,96,4.103,4.105,4.103,0,0,0,6.845,77.54,28.537283721592,10.826772,6,P-GPS,
13200,2021-09-06 02:48:11,47.5726876813633,-122.626662978358,10.826772,10.7939636,17.743320121592,28.537283721592,12.139108,0,2.4117946966,11,2,12.305,28.865367721592,11.154856,0.223694,2.4117946966,0,0,0,350, -1, -0.9,0,0,1024,1024,1024,1024,268,0,96,4.103,4.105,4.103,0,0,0,6.845,77.54,28.537283721592,10.826772,6,P-GPS,
13300,2021-09-06 02:48:11,47.5726879806643,-122.626662599683,10.826772,10.7939636,17.743320121592,28.537283721592,12.139108,0,2.55493446496,11,2,12.303,28.865367721592,11.154856,0.223694,2.55493446496,0,0,0,350, -1, -1,0,0,1024,1024,1024,1024,268,0,96,4.098,4.101,4.099,0,0,0,6.764,77.72,28.537283721592,10.826772,6,P-GPS,
13400,2021-09-06 02:48:11,47.5726879357608,-122.62666207594,10.826772,10.7611552,17.776128521592,28.537283721592,12.139108,0,2.620242866,11,2,12.303,28.865367721592,11.154856,0.223694,2.620242866,0,0,0,350, -1, -1.1,0,0,1024,1024,1024,1024,268,0,96,4.098,4.101,4.099,0,0,0,6.764,77.72,28.537283721592,10.826772,6,P-GPS,
13500,2021-09-06 02:48:11,47.5726882150987,-122.626661662956,10.826772,10.7611552,17.776128521592,28.537283721592,12.139108,0,2.763369511,11,2,12.303,28.865367721592,11.154856,0.223694,2.763369511,0,0,0,350.1, -1, -1,0,0,1024,1024,1024,1024,268,0,96,4.098,4.101,4.099,0,0,0,6.764,77.72,28.537283721592,10.826772,6,P-GPS,
13600,2021-09-06 02:48:11,47.5726881365211,-122.626661295576,10.826772,10.7611552,17.776128521592,28.537283721592,12.139108,0,2.79935376412,11,2,12.303,28.865367721592,11.154856,0.223694,2.79935376412,0,0,0,350.1, -1, -1,0,0,1024,1024,1024,1024,268,0,96,4.098,4.101,4.099,0,0,0,6.764,77.72,28.537283721592,10.826772,6,P-GPS,
13700,2021-09-06 02:48:11,47.5726883934366,-122.626660869992,10.826772,10.7611552,17.776128521592,28.537283721592,12.139108,0,2.93881243,11,2,12.303,28.865367721592,11.154856,0.223694,2.93881243,0,0,0,350.1, -0.8, -1,0,0,1024,1024,1024,1024,268,0,96,4.098,4.101,4.099,0,0,0,6.764,77.72,28.537283721592,10.826772,6,P-GPS,
13800,2021-09-06 02:48:11,47.572688361149,-122.626660528679,10.826772,10.7611552,17.776128521592,28.537283721592,12.139108,0,2.98604996432,11,2,12.303,28.865367721592,11.154856,0.223694,2.98604996432,0,0,0,350.1, -0.7, -1,0,0,1024,1024,1024,1024,268,0,96,4.098,4.101,4.099,0,0,0,6.764,77.72,28.537283721592,10.826772,6,P-GPS,
13900,2021-09-06 02:48:11,47.5726885975858,-122.62666008792,10.826772,10.7611552,17.776128521592,28.537283721592,12.139108,0,3.12302175348,11,2,12.303,28.865367721592,11.154856,0.223694,3.12302175348,0,0,0,350.1, -0.8, -1,0,0,1024,1024,1024,1024,268,0,96,4.098,4.101,4.099,0,0,0,6.764,77.72,28.537283721592,10.826772,6,P-GPS,
14000,2021-09-06 02:48:12,47.5726887175845,-122.626660015842,10.826772,10.7611552,17.776128521592,28.537283721592,12.139108,0,3.16721794912,11,2,12.303,28.865367721592,11.154856,0.223694,3.16721794912,0,0,0,350.1, -0.8, -1,0,0,1024,1024,1024,1024,268,0,96,4.098,4.101,4.099,0,0,0,6.764,77.72,28.537283721592,10.826772,6,P-GPS,
14100,2021-09-06 02:48:12,47.5726889465202,-122.626659586682,10.826772,10.7611552,17.776128521592,28.537283721592,12.139108,0,3.3002625728,11,2,12.303,28.865367721592,11.154856,0.223694,3.3002625728,0,0,0,350.1, -0.8, -1,0,0,1024,1024,1024,1024,268,0,96,4.098,4.101,4.099,0,0,0,6.764,77.72,28.537283721592,10.826772,6,P-GPS,
14200,2021-09-06 02:48:12,47.572688932673,-122.626659622938,10.826772,10.7611552,17.776128521592,28.537283721592,12.139108,0,3.2904856696,11,2,12.303,28.865367721592,11.154856,0.223694,3.3002625728,0,0,0,350.1, -0.7, -0.9,0,0,1024,1024,1024,1024,268,0,96,4.098,4.101,4.099,0,0,0,6.764,77.72,28.537283721592,10.826772,6,P-GPS,
14300,2021-09-06 02:48:12,47.572689142343,-122.626659219769,10.826772,10.7611552,17.776128521592,28.537283721592,12.139108,0,3.4141405292,11,2,12.291,28.865367721592,11.154856,0.223694,3.4141405292,0,0,0,350.1, -0.7, -0.8,0,0,1024,1024,1024,1024,268,0,96,4.097,4.101,4.099,0,0,0,6.838,77.72,28.537283721592,10.826772,6,P-GPS,
14400,2021-09-06 02:48:12,47.5726893214031,-122.626659224213,10.826772,10.7611552,17.776128521592,28.537283721592,12.139108,0,3.4612862,11,2,12.291,28.865367721592,11.154856,0.223694,3.4612862,0,0,0,350.1, -0.8, -0.9,0,0,1024,1024,1024,1024,268,0,96,4.097,4.101,4.099,0,0,0,6.838,77.72,28.537283721592,10.826772,6,P-GPS,
14500,2021-09-06 02:48:12,47.5726895288471,-122.626658835791,10.826772,10.7611552,17.776128521592,28.537283721592,12.467192,0,3.5817258364,11,2,12.291,28.865367721592,11.154856,0.223694,3.5817258364,0,0,0,350.1, -0.9, -1,0,0,1024,1024,1024,1024,268,0,96,4.097,4.101,4.099,0,0,0,6.838,77.72,28.537283721592,10.826772,6,P-GPS,
14600,2021-09-06 02:48:12,47.5726897148388,-122.626658967319,10.826772,10.7611552,17.776128521592,28.537283721592,12.139108,0,3.6101707192,11,2,12.291,28.865367721592,11.154856,0.223694,3.6101707192,0,0,0,350.1, -0.9, -1.2,0,0,1024,1024,1024,1024,268,0,96,4.097,4.101,4.099,0,0,0,6.838,77.72,28.537283721592,10.826772,6,P-GPS,
14700,2021-09-06 02:48:12,47.5726899244926,-122.626658617992,10.826772,10.7611552,17.776128521592,28.537283721592,12.139108,0,3.7245079932,11,2,12.291,28.865367721592,11.154856,0.223694,3.7245079932,0,0,0,350, -0.9, -1.3,0,0,1024,1024,1024,1024,268,0,96,4.097,4.101,4.099,0,0,0,6.838,77.72,28.537283721592,10.826772,6,P-GPS,
14800,2021-09-06 02:48:12,47.5726899549853,-122.626658868286,10.826772,10.7611552,17.776128521592,28.537283721592,12.139108,0,3.6920276772,11,2,12.291,28.865367721592,11.154856,0.223694,3.7245079932,0,0,0,350.1, -0.8, -1,0,0,1024,1024,1024,1024,268,0,96,4.097,4.101,4.099,0,0,0,6.838,77.72,28.537283721592,10.826772,6,P-GPS,
14900,2021-09-06 02:48:12,47.57269015001,-122.626658573313,10.826772,10.7611552,17.776128521592,28.537283721592,12.467192,0,3.7934056332,11,2,12.291,28.865367721592,11.154856,0.223694,3.7934056332,0,0,0,350.1, -0.7, -1.1,0,0,1024,1024,1024,1024,268,0,96,4.097,4.101,4.099,0,0,0,6.838,77.72,28.537283721592,10.826772,6,P-GPS,
15000,2021-09-06 02:48:13,47.5726903680137,-122.626658768113,10.826772,10.7611552,17.776128521592,28.537283721592,12.467192,0,3.822670726,11,2,12.291,28.865367721592,11.154856,0.223694,3.822670726,0,0,0,350.1, -0.7, -1.1,0,0,1024,1024,1024,1024,268,0,96,4.097,4.101,4.099,0,0,0,6.838,77.72,28.537283721592,10.826772,6,P-GPS,
15100,2021-09-06 02:48:13,47.5726905641866,-122.626658514798,10.826772,10.7611552,17.776128521592,28.537283721592,12.139108,0,3.9175854272,11,2,12.291,28.865367721592,11.154856,0.223694,3.9175854272,0,0,0,350.1, -0.7, -1.1,0,0,1024,1024,1024,1024,268,0,96,4.097,4.101,4.099,0,0,0,6.838,77.72,28.537283721592,10.826772,6,P-GPS,
15200,2021-09-06 02:48:13,47.5726905934923,-122.626658647638,10.826772,10.7611552,17.776128521592,28.537283721592,12.139108,0,3.9049541932,11,2,12.291,28.865367721592,11.154856,0.223694,3.9175854272,0,0,0,350, -0.6, -1.2,0,0,1024,1024,1024,1024,268,0,96,4.097,4.101,4.099,0,0,0,6.838,77.72,28.537283721592,10.826772,6,P-GPS,
15300,2021-09-06 02:48:13,47.5726907724807,-122.626658436207,10.826772,10.7611552,17.776128521592,28.537283721592,12.139108,0,3.9884515712,11,2,12.287,28.865367721592,11.154856,0.223694,3.9884515712,0,0,0,350, -0.5, -1.2,0,0,1024,1024,1024,1024,268,0,95,4.096,4.1,4.097,0,0,0,6.785,77.72,28.537283721592,10.826772,6,P-GPS,
15400,2021-09-06 02:48:13,47.5726910147036,-122.626658463945,10.826772,10.7611552,17.776128521592,28.537283721592,12.139108,0,4.0528544604,11,2,12.287,28.865367721592,11.154856,0.223694,4.0528544604,0,0,0,350, -0.6, -1,0,0,1024,1024,1024,1024,268,0,95,4.096,4.1,4.097,0,0,0,6.785,77.72,28.537283721592,10.826772,6,P-GPS,
15500,2021-09-06 02:48:13,47.5726911944399,-122.626658288431,10.826772,10.7611552,17.776128521592,28.537283721592,12.139108,0,4.131069686,11,2,12.287,28.865367721592,11.154856,0.223694,4.131069686,0,0,0,350.1, -0.7, -0.9,0,0,1024,1024,1024,1024,268,0,95,4.096,4.1,4.097,0,0,0,6.785,77.72,28.537283721592,10.826772,6,P-GPS,
15600,2021-09-06 02:48:13,47.5726914139817,-122.626658449096,10.826772,10.7611552,17.776128521592,28.537283721592,12.139108,0,4.1699804484,11,2,12.287,28.865367721592,11.154856,0.223694,4.1699804484,0,0,0,350.1, -0.7, -0.7,0,0,1024,1024,1024,1024,268,0,95,4.096,4.1,4.097,0,0,0,6.785,77.72,28.537283721592,10.826772,6,P-GPS,
15700,2021-09-06 02:48:13,47.5726915917445,-122.626658308871,10.826772,10.7611552,17.776128521592,28.537283721592,12.139108,0,4.2424870124,11,2,12.287,28.865367721592,11.154856,0.223694,4.2424870124,0,0,0,350, -0.7, -0.9,0,0,1024,1024,1024,1024,268,0,95,4.096,4.1,4.097,0,0,0,6.785,77.72,28.537283721592,10.826772,6,P-GPS,
15800,2021-09-06 02:48:13,47.5726916484474,-122.626658218484,10.826772,10.7611552,17.776128521592,28.537283721592,12.139108,0,4.2724410816,11,2,12.287,28.865367721592,11.154856,0.223694,4.2724410816,0,0,0,350.1, -0.8, -0.9,0,0,1024,1024,1024,1024,268,0,95,4.096,4.1,4.097,0,0,0,6.785,77.72,28.537283721592,10.826772,6,P-GPS,
15900,2021-09-06 02:48:13,47.5726918112288,-122.626658090482,10.826772,10.7611552,17.776128521592,28.537283721592,12.139108,0,4.3387796664,11,2,12.287,28.865367721592,11.154856,0.223694,4.3387796664,0,0,0,350, -0.8, -0.8,0,0,1024,1024,1024,1024,268,0,95,4.096,4.1,4.097,0,0,0,6.785,77.72,28.537283721592,10.826772,6,P-GPS,
16000,2021-09-06 02:48:14,47.5726920551718,-122.626658106999,10.826772,10.7611552,17.776128521592,28.537283721592,12.139108,0,4.4076773064,11,2,12.287,28.865367721592,11.154856,0.223694,4.4076773064,0,0,0,350, -0.9, -0.7,0,0,1024,1024,1024,1024,268,0,95,4.096,4.1,4.097,0,0,0,6.785,77.72,28.537283721592,10.826772,6,P-GPS,
16100,2021-09-06 02:48:14,47.5726922188575,-122.626657999386,10.826772,10.7611552,17.776128521592,28.537283721592,12.139108,0,4.4715224528,11,2,12.287,28.865367721592,11.154856,0.223694,4.4715224528,0,0,0,350.1, -1, -0.6,0,0,1024,1024,1027,1024,268,0,95,4.096,4.1,4.097,0,0,0,6.785,77.72,28.537283721592,10.826772,6,P-GPS,
16200,2021-09-06 02:48:14,47.5726921298458,-122.626658136149,10.826772,10.7611552,17.776128521592,28.537283721592,12.139108,0,4.4254266508,11,2,12.287,28.865367721592,11.154856,0.223694,4.4715224528,0,0,0,350, -1, -0.5,0,0,1024,1024,1078,1024,268,0,95,4.096,4.1,4.097,0,0,0,6.785,77.72,28.537283721592,10.826772,6,P-GPS,
16300,2021-09-06 02:48:14,47.5726922708514,-122.626658045874,10.826772,10.7611552,17.776128521592,28.537283721592,12.139108,0,4.4801182536,11,2,12.283,28.865367721592,11.154856,0.223694,4.4801182536,0,0,0,350, -1, -0.7,0,0,1024,1024,1099,1024,268,0,95,4.092,4.095,4.092,0,0,0,6.753,77.72,28.537283721592,10.826772,6,P-GPS,
16400,2021-09-06 02:48:14,47.5726924220053,-122.626658094954,10.826772,10.7611552,17.776128521592,28.537283721592,12.139108,0,4.517880722,11,2,12.283,28.865367721592,11.154856,0.223694,4.517880722,0,0,0,349.9, -1, -0.9,0,0,1024,1024,1099,1024,268,0,95,4.092,4.095,4.092,0,0,0,6.753,77.72,28.537283721592,10.826772,6,P-GPS,
16500,2021-09-06 02:48:14,47.5726925612942,-122.626658014621,10.826772,10.7611552,17.776128521592,28.537283721592,12.139108,0,4.5707678628,11,2,12.283,28.865367721592,11.154856,0.223694,4.5707678628,0,0,0,349.9, -1, -1,0,0,1024,1024,1147,1024,268,0,95,4.092,4.095,4.092,0,0,0,6.753,77.72,28.537283721592,10.826772,6,P-GPS,
16600,2021-09-06 02:48:14,47.5726925578277,-122.626658020121,11.154856,11.0892392,17.776128521592,28.865367721592,12.139108,0,4.5689634008,11,2,12.283,28.865367721592,11.154856,0.223694,4.5707678628,0,0,0,349.9, -1, -0.9,0,0,1024,1024,1221,1024,268,0,95,4.092,4.095,4.092,0,0,0,6.753,77.72,28.865367721592,11.154856,6,P-GPS,
16700,2021-09-06 02:48:14,47.5726926837895,-122.626657953219,11.154856,11.0892392,17.776128521592,28.865367721592,12.139108,0,4.6160434548,11,2,12.283,28.865367721592,11.154856,0.223694,4.6160434548,0,0,-0.447388,349.9, -1, -1,0,0,1024,1024,1240,1024,268,0,95,4.092,4.095,4.092,0,0,0,6.753,77.72,28.865367721592,11.154856,6,P-GPS,
16800,2021-09-06 02:48:14,47.5726927097623,-122.626658117454,11.154856,11.0892392,17.776128521592,28.865367721592,12.467192,0,4.600721932,11,2,12.283,28.865367721592,11.154856,0.223694,4.6160434548,0,0,-0.894776,349.9, -1.1, -1.2,0,0,1024,1024,1245,1024,268,0,95,4.092,4.095,4.092,0,0,0,6.753,77.72,28.865367721592,11.154856,6,P-GPS,
16900,2021-09-06 02:48:14,47.5726928225516,-122.626658084427,11.154856,11.0892392,17.776128521592,28.865367721592,12.467192,0,4.639271802,11,2,12.283,28.865367721592,11.154856,0.223694,4.639271802,0,0,-1.11847,349.9, -1.1, -1.3,0,0,1024,1024,1242,1024,268,0,95,4.092,4.095,4.092,0,0,0,6.753,77.72,28.865367721592,11.154856,6,P-GPS,
17000,2021-09-06 02:48:15,47.5726925424767,-122.626658238779,11.48294,11.4173232,17.776128521592,29.193451721592,12.795276,0,4.5335303288,11,2,12.283,29.193451721592,11.48294,0.223694,4.639271802,0,0,-1.342164,350, -1, -1.1,0,0,1024,1024,1239,1024,268,0,95,4.092,4.095,4.092,0,0,0,6.753,77.72,29.193451721592,11.48294,6,P-GPS,
17100,2021-09-06 02:48:15,47.5726926119011,-122.626658248093,11.811024,11.7454072,17.776128521592,29.521535721592,13.12336,0,4.5530841352,11,4,12.283,29.521535721592,11.811024,0.223694,4.639271802,0,0,-1.342164,350, -1.1, -1,0,0,1024,1024,1222,1024,268,0,95,4.092,4.095,4.092,0,0,0,6.753,77.72,29.521535721592,11.811024,6,P-GPS,Altitude Zone 98 ft
17200,2021-09-06 02:48:15,47.5726927101963,-122.626658368995,11.811024,11.7454072,17.776128521592,29.521535721592,13.451444,0,4.5660106448,11,4,12.283,29.521535721592,11.811024,0.223694,4.639271802,0,0,-1.565858,350, -1.1, -1,0,0,1024,1024,1222,1024,268,0,95,4.092,4.095,4.092,0,0,0,6.753,77.72,29.521535721592,11.811024,6,P-GPS,
17300,2021-09-06 02:48:15,47.5726927779709,-122.6266584018,12.139108,12.0734912,17.776128521592,29.849619721592,13.779528,0,4.5820539524,11,2,12.267,29.849619721592,12.139108,0.223694,4.639271802,0,0,-1.342164,350, -1.1, -1,0,0,1024,1024,1226,1024,268,0,95,4.061,4.065,4.065,0,0,0,6.928,77.9,29.849619721592,12.139108,6,P-GPS,GPS signal weak (Max altitude 98 ft) GPS signal weak. Fly with caution. Aircraft in Altitude Zone. Max altitude set to 98 ft (Code: 30014)
17400,2021-09-06 02:48:15,47.5726930680479,-122.626657974717,12.467192,12.4015752,17.776128521592,30.177703721592,14.107612,0,4.72851065,11,2,12.267,30.177703721592,12.467192,0.223694,4.72851065,0,0,-1.342164,350, -1.1, -1.1,0,0,1024,1024,1226,1024,268,0,95,4.061,4.065,4.065,0,0,0,6.928,77.9,30.177703721592,12.467192,6,P-GPS,
17500,2021-09-06 02:48:15,47.5726931584433,-122.626657984393,12.467192,12.4015752,17.776128521592,30.177703721592,14.107612,0,4.7545605196,11,2,12.267,30.177703721592,12.467192,0.223694,4.7545605196,0,0,-1.342164,350, -1, -1.2,0,0,1024,1024,1203,1024,268,0,95,4.061,4.065,4.065,0,0,0,6.928,77.9,30.177703721592,12.467192,6,P-GPS,
17600,2021-09-06 02:48:15,47.5726929695454,-122.626658211373,12.795276,12.7296592,17.776128521592,30.505787721592,14.435696,0,4.6662074984,11,2,12.267,30.505787721592,12.795276,0.223694,4.7545605196,0,0,-1.342164,350, -0.7, -1.1,0,0,1024,1024,1199,1024,268,0,95,4.061,4.065,4.065,0,0,0,6.928,77.9,30.505787721592,12.795276,6,P-GPS,
17700,2021-09-06 02:48:15,47.572693033156,-122.626658260115,13.12336,13.0577432,17.776128521592,30.833871721592,14.76378,0,4.6789371576,11,2,12.267,30.833871721592,13.12336,0.223694,4.7545605196,0,0,-1.11847,350, -0.5, -1.1,0,0,1024,1024,1201,1024,268,0,95,4.061,4.065,4.065,0,0,0,6.928,77.9,30.833871721592,13.12336,6,P-GPS,
17800,2021-09-06 02:48:15,47.572693522266,-122.626657464248,13.12336,13.0577432,17.776128521592,30.833871721592,14.76378,0,4.936187822,11,2,12.267,30.833871721592,13.12336,0.223694,4.936187822,0,0,-1.11847,350, -0.6, -0.9,0,0,1024,1024,1202,1024,268,0,95,4.061,4.065,4.065,0,0,0,6.928,77.9,30.833871721592,13.12336,6,P-GPS,Setting new Maximum Flight Altitude to 120m (394 ft). GPS signal weak (Max altitude 394 ft) GPS signal weak. Fly with caution. Aircraft in Altitude Zone. Max altitude set to 394 ft (Code: 30014). Homepoint updated. RTH altitude adjusted to 200 ft (Code: 120852)
17900,2021-09-06 02:48:15,47.5726936115988,-122.626657451567,13.451444,13.3858272,17.776128521592,31.161955721592,15.091864,0,4.9649279804,11,2,12.267,31.161955721592,13.451444,0.223694,4.9649279804,0,0,-0.894776,350, -0.8, -1,0,0,1024,1024,1211,1024,268,0,95,4.061,4.065,4.065,0,0,0,6.928,77.9,31.161955721592,13.451444,6,P-GPS,
18000,2021-09-06 02:48:16,47.5726938628297,-122.626657225595,13.451444,13.3858272,17.776128521592,31.161955721592,15.091864,0,5.0720474064,11,2,12.267,31.161955721592,13.451444,0.223694,5.0720474064,0,0,-0.894776,350, -0.9, -0.8,0,0,1024,1024,1211,1024,268,0,95,4.061,4.065,4.065,0,0,0,6.928,77.9,31.161955721592,13.451444,6,P-GPS,
18100,2021-09-06 02:48:16,47.5726939638452,-122.626657201458,13.779528,13.7139112,17.776128521592,31.490039721592,15.419948,0,5.105971292,11,2,12.267,31.490039721592,13.779528,0.223694,5.105971292,0,0,-1.11847,350.1, -0.9, -0.4,0,0,1024,1024,1209,1024,268,0,95,4.061,4.065,4.065,0,0,0,6.928,77.9,31.490039721592,13.779528,6,P-GPS,
18200,2021-09-06 02:48:16,47.5726938843103,-122.626657285925,13.779528,13.7139112,17.776128521592,31.490039721592,15.748032,0,5.0702757528,11,2,12.267,31.490039721592,13.779528,0.223694,5.105971292,0,0,-1.11847,350, -0.7, -0.5,0,0,1024,1024,1176,1024,268,0,95,4.061,4.065,4.065,0,0,0,6.928,77.9,31.490039721592,13.779528,6,P-GPS,
18300,2021-09-06 02:48:16,47.5726939711743,-122.626657258586,14.107612,14.0419952,17.776128521592,31.818123721592,15.748032,0,5.100393864,11,2,12.25,31.818123721592,14.107612,0.223694,5.105971292,0,0,-1.11847,350, -0.7, -0.8,0,0,1024,1024,1176,1024,268,0,95,4.083,4.087,4.089,0,0,0,7.647,77.9,31.818123721592,14.107612,6,P-GPS,
18400,2021-09-06 02:48:16,47.5726942453206,-122.626656651833,14.107612,14.0419952,17.776128521592,31.818123721592,16.076116,0,5.2667980688,11,2,12.25,31.818123721592,14.107612,0.223694,5.2667980688,0,0,-0.894776,350, -0.6, -1,0,0,1024,1024,1024,1024,268,0,95,4.083,4.087,4.089,0,0,0,7.647,77.9,31.818123721592,14.107612,6,P-GPS,
18500,2021-09-06 02:48:16,47.572694343389,-122.626656570036,14.435696,14.3700792,17.776128521592,32.146207721592,16.076116,0,5.3077101436,11,4,12.25,32.146207721592,14.435696,0.223694,5.3077101436,0,0,-0.671082,350, -0.6, -1.2,0,0,1024,1024,1024,1024,268,0,95,4.083,4.087,4.089,0,0,0,7.647,77.9,32.146207721592,14.435696,6,P-GPS,Altitude Zone 394 ft
18600,2021-09-06 02:48:16,47.5726942828958,-122.626656032256,14.435696,14.3700792,17.776128521592,32.146207721592,16.076116,0,5.3654529276,11,4,12.25,32.146207721592,14.435696,0.223694,5.3654529276,0,0,-0.223694,350, -0.7, -1,0,0,1024,1024,1024,1024,268,0,95,4.083,4.087,4.089,0,0,0,7.647,77.9,32.146207721592,14.435696,6,P-GPS,
18700,2021-09-06 02:48:16,47.5726943613096,-122.626655911009,14.435696,14.3700792,17.776128521592,32.146207721592,16.076116,0,5.4061025352,11,4,12.25,32.146207721592,14.435696,0.223694,5.4061025352,0,0,0,350, -0.8, -0.9,0,0,1024,1024,1024,1024,268,0,95,4.083,4.087,4.089,0,0,0,7.647,77.9,32.146207721592,14.435696,6,P-GPS,
18800,2021-09-06 02:48:16,47.5726941484819,-122.626656298165,14.435696,14.3700792,17.776128521592,32.146207721592,16.4042,0,5.2875329776,11,4,12.25,32.146207721592,14.435696,0.223694,5.4061025352,0,0,0,350, -0.8, -0.9,0,0,1024,1024,1024,1024,268,0,95,4.083,4.087,4.089,0,0,0,7.647,77.9,32.146207721592,14.435696,6,P-GPS,
18900,2021-09-06 02:48:16,47.5726942008867,-122.626656215518,14.435696,14.3700792,17.776128521592,32.146207721592,16.4042,0,5.3148951832,12,4,12.25,32.146207721592,14.435696,0.223694,5.4061025352,0,0,0,350, -0.8, -0.9,0,0,1024,1024,1024,1024,268,0,95,4.083,4.087,4.089,0,0,0,7.647,77.9,32.146207721592,14.435696,6,P-GPS,
19000,2021-09-06 02:48:16,47.572694531251,-122.626656075545,14.435696,14.3700792,17.776128521592,32.146207721592,16.4042,0,5.4332678904,12,4,12.25,32.146207721592,14.435696,0.223694,5.4332678904,0,0,0,350, -0.8, -0.9,0,0,1024,1024,1024,1024,268,0,95,4.083,4.087,4.089,0,0,0,7.647,77.9,32.146207721592,14.435696,6,P-GPS,
19100,2021-09-06 02:48:17,47.5726946082791,-122.626655984263,14.435696,14.3700792,17.776128521592,32.146207721592,16.076116,0,5.4691930884,12,4,12.25,32.146207721592,14.435696,0.223694,5.4691930884,0,0,0,350, -0.7, -0.9,0,0,1024,1024,1024,1024,268,0,95,4.083,4.087,4.089,0,0,0,7.647,77.9,32.146207721592,14.435696,6,P-GPS,
19200,2021-09-06 02:48:17,47.572694595222,-122.626655855814,14.435696,14.3700792,17.776128521592,32.146207721592,16.076116,0,5.4834647424,12,4,12.25,32.146207721592,14.435696,0.223694,5.4834647424,0,0,0,350, -0.6, -1,0,0,1024,1024,1024,1024,268,0,95,4.083,4.087,4.089,0,0,0,7.647,77.9,32.146207721592,14.435696,6,P-GPS,
19300,2021-09-06 02:48:17,47.5726946634833,-122.626655757819,14.435696,14.3700792,17.776128521592,32.146207721592,16.4042,0,5.5177495204,12,4,12.266,32.146207721592,14.435696,0.223694,5.5177495204,0,0,0,350, -0.5, -1.2,0,0,1024,1024,1024,1024,268,0,95,4.097,4.095,4.094,0,0,0,6.625,77.9,32.146207721592,14.435696,6,P-GPS,
19400,2021-09-06 02:48:17,47.5726945187341,-122.626655778903,14.435696,14.3700792,17.776128521592,32.146207721592,16.4042,0,5.4717193352,12,4,12.266,32.146207721592,14.435696,0.223694,5.5177495204,0,0,0,350, -0.4, -1.3,0,0,1024,1024,1024,1024,268,0,95,4.097,4.095,4.094,0,0,0,6.625,77.9,32.146207721592,14.435696,6,P-GPS,
19500,2021-09-06 02:48:17,47.5726945608021,-122.626655696988,14.435696,14.3700792,17.776128521592,32.146207721592,16.4042,0,5.4959647428,12,4,12.266,32.146207721592,14.435696,0.223694,5.5177495204,0,0,0,350, -0.3, -1.2,0,0,1024,1024,1024,1024,268,0,95,4.097,4.095,4.094,0,0,0,6.625,77.9,32.146207721592,14.435696,6,P-GPS,
19600,2021-09-06 02:48:17,47.5726945856435,-122.62665557215,14.435696,14.3700792,17.776128521592,32.146207721592,16.076116,0,5.5212600192,12,4,12.266,32.146207721592,14.435696,0.223694,5.5212600192,0,0,0,350, -0.4, -1,0,0,1024,1024,1024,1024,268,0,95,4.097,4.095,4.094,0,0,0,6.625,77.9,32.146207721592,14.435696,6,P-GPS,
19700,2021-09-06 02:48:17,47.5726946135964,-122.626655486756,14.435696,14.3700792,17.776128521592,32.146207721592,16.076116,0,5.5418636944,12,4,12.266,32.146207721592,14.435696,0.223694,5.5418636944,0,0,0,350, -0.5, -1,0,0,1024,1024,1024,1024,268,0,95,4.097,4.095,4.094,0,0,0,6.625,77.9,32.146207721592,14.435696,6,P-GPS,
19800,2021-09-06 02:48:17,47.5726946434226,-122.626655528373,14.435696,14.3700792,17.776128521592,32.146207721592,16.076116,0,5.5446852168,12,4,12.266,32.146207721592,14.435696,0.223694,5.5446852168,0,0,0,350, -0.6, -1.2,0,0,1024,1024,1024,1024,268,0,95,4.097,4.095,4.094,0,0,0,6.625,77.9,32.146207721592,14.435696,6,P-GPS,
19900,2021-09-06 02:48:17,47.5726946645086,-122.626655454192,14.435696,14.3700792,17.776128521592,32.146207721592,16.076116,0,5.5616143512,12,4,12.266,32.146207721592,14.435696,0.223694,5.5616143512,0,0,0,350, -0.6, -1.3,0,0,1024,1024,1024,1024,268,0,95,4.097,4.095,4.094,0,0,0,6.625,77.9,32.146207721592,14.435696,6,P-GPS,
20000,2021-09-06 02:48:18,47.5726945568024,-122.626655469178,14.435696,14.3700792,17.776128521592,32.146207721592,16.076116,0,5.5276904656,12,4,12.266,32.146207721592,14.435696,0.223694,5.5616143512,0,0,0,350, -0.6, -1.3,0,0,1024,1024,1024,1024,268,0,95,4.097,4.095,4.094,0,0,0,6.625,77.9,32.146207721592,14.435696,6,P-GPS,
20100,2021-09-06 02:48:18,47.5726945584526,-122.626655414073,14.435696,14.3700792,17.776128521592,32.146207721592,16.076116,0,5.5361878412,12,4,12.266,32.146207721592,14.435696,0.223694,5.5616143512,0,0,0,350.1, -0.6, -1,0,0,1024,1024,1024,1024,268,0,95,4.097,4.095,4.094,0,0,0,6.625,77.9,32.146207721592,14.435696,6,P-GPS,
20200,2021-09-06 02:48:18,47.5726948203225,-122.626655259645,14.435696,14.3700792,17.776128521592,32.146207721592,16.076116,0,5.6357613352,12,4,12.266,32.146207721592,14.435696,0.223694,5.6357613352,0,0,0,350.1, -0.6, -0.9,0,0,1024,1024,1024,1024,268,0,95,4.097,4.095,4.094,0,0,0,6.625,77.9,32.146207721592,14.435696,6,P-GPS,
20300,2021-09-06 02:48:18,47.5726948390397,-122.626655192253,14.435696,14.3700792,17.776128521592,32.146207721592,16.076116,0,5.6510500496,12,4,12.25,32.146207721592,14.435696,0.223694,5.6510500496,0,0,0,350.1, -0.6, -1,0,0,1024,1024,1024,1024,268,0,95,4.085,4.085,4.084,0,0,0,6.83,78.08,32.146207721592,14.435696,6,P-GPS,
20400,2021-09-06 02:48:18,47.5726950866152,-122.626655350652,14.435696,14.3700792,17.776128521592,32.146207721592,16.076116,0,5.7016406024,12,4,12.25,32.146207721592,14.435696,0.223694,5.7016406024,0,0,0,350.1, -0.6, -1,0,0,1024,1024,1024,1024,268,0,95,4.085,4.085,4.084,0,0,0,6.83,78.08,32.146207721592,14.435696,6,P-GPS,
20500,2021-09-06 02:48:18,47.5726951265498,-122.626655290987,14.435696,14.3700792,17.776128521592,32.146207721592,16.076116,0,5.7220474272,12,4,12.25,32.146207721592,14.435696,0.223694,5.7220474272,0,0,0,350, -0.6, -1.2,0,0,1024,1024,1024,1024,268,0,95,4.085,4.085,4.084,0,0,0,6.83,78.08,32.146207721592,14.435696,6,P-GPS,
20600,2021-09-06 02:48:18,47.5726953639106,-122.626655216733,14.435696,14.3700792,17.776128521592,32.146207721592,16.076116,0,5.8033794508,12,4,12.25,32.146207721592,14.435696,0.223694,5.8033794508,0,0,0,350, -0.6, -1.3,0,0,1024,1024,1024,1024,268,0,95,4.085,4.085,4.084,0,0,0,6.83,78.08,32.146207721592,14.435696,6,P-GPS,
20700,2021-09-06 02:48:18,47.572695425399,-122.62665515029,14.435696,14.3700792,17.776128521592,32.146207721592,16.076116,0,5.8311353572,12,4,12.25,32.146207721592,14.435696,0.223694,5.8311353572,0,0,0,350, -0.6, -1.1,0,0,1024,1024,1024,1024,268,0,95,4.085,4.085,4.084,0,0,0,6.83,78.08,32.146207721592,14.435696,6,P-GPS,
20800,2021-09-06 02:48:18,47.5726956431211,-122.626655081986,14.435696,14.3700792,17.776128521592,32.146207721592,16.076116,0,5.9059713176,12,4,12.25,32.146207721592,14.435696,0.223694,5.9059713176,0,0,0,350, -0.5, -1.2,0,0,1024,1024,1024,1024,268,0,95,4.085,4.085,4.084,0,0,0,6.83,78.08,32.146207721592,14.435696,6,P-GPS,
20900,2021-09-06 02:48:18,47.5726957226986,-122.626655006908,14.435696,14.3700792,17.776128521592,32.146207721592,16.076116,0,5.9403545208,14,4,12.25,32.146207721592,14.435696,0.223694,5.9403545208,0,0,0,350, -0.5, -1.4,0,0,1024,1024,1024,1024,268,0,95,4.085,4.085,4.084,0,0,0,6.83,78.08,32.146207721592,14.435696,6,P-GPS,
21000,2021-09-06 02:48:19,47.5726959049483,-122.626655126576,14.435696,14.3700792,17.776128521592,32.146207721592,15.748032,0,5.9786419236,14,4,12.25,32.146207721592,14.435696,0.223694,5.9786419236,0,0,0,350, -0.5, -1.2,0,0,1024,1024,1024,1024,268,0,95,4.085,4.085,4.084,0,0,0,6.83,78.08,32.146207721592,14.435696,6,P-GPS,
