time(millisecond),datetime(utc),latitude,longitude,height_above_takeoff(feet),height_above_ground_at_drone_location(feet),ground_elevation_at_drone_location(feet),altitude_above_seaLevel(feet),height_sonar(feet),speed(mph),distance(feet),satellites,gpslevel,voltage(v),max_altitude(feet),max_ascent(feet),max_speed(mph),max_distance(feet), xSpeed(mph), ySpeed(mph), zSpeed(mph), compass_heading(degrees), pitch(degrees), roll(degrees),isPhoto,isVideo,rc_elevator,rc_aileron,rc_throttle,rc_rudder,gimbal_heading(degrees),gimbal_pitch(degrees),battery_percent,voltageCell1,voltageCell2,voltageCell3,voltageCell4,voltageCell5,voltageCell6,current(A),battery_temperature(f),altitude(feet),ascent(feet),flycStateRaw,flycState,message
0,2021-09-06 02:23:48,47.5726976524126,-122.62662335236,0,0,17.367977261812,17.367977261812,0.328084,0,0,11,4,0,17.367977261812,0,0,0,0,0,0,79.2, 3.3, 1.9,0,0,364,364,364,1684,63.3,0,95,4.25,4.232,0,0,0,0,0,80.96,17.367977261812,0,41,Motors_Started,
100,2021-09-06 02:23:48,47.5726975932024,-122.626623360638,0,0,17.367977261812,17.367977261812,0.328084,0,0.0216986883584,11,4,0,17.367977261812,0,0,0.0216986883584,0,0,0,79.3, 3.3, 1.9,0,0,364,364,364,1684,63.3,0,95,4.25,4.232,0,0,0,0,0,80.96,17.367977261812,0,41,Motors_Started,
200,2021-09-06 02:23:48,47.5726975411239,-122.626623353659,0,0,17.367977261812,17.367977261812,0.328084,0,0.040604988176,11,4,0,17.367977261812,0,0,0.040604988176,0,0,0,79.3, 3.3, 1.9,0,0,364,364,364,1684,63.3,0,95,4.25,4.232,0,0,0,0,0,80.96,17.367977261812,0,41,Motors_Started,
300,2021-09-06 02:23:48,47.5726974992167,-122.626623276772,0,0,17.367977261812,17.367977261812,0.328084,0,0.058908794536,11,4,0,17.367977261812,0,0,0.058908794536,0,0,0,79.3, 3.3, 1.8,0,0,364,364,364,1684,63.3,0,95,4.25,4.232,0,0,0,0,0,80.96,17.367977261812,0,41,Motors_Started,
400,2021-09-06 02:23:48,47.5726974502046,-122.626623227061,0,0,17.367977261812,17.367977261812,0.328084,0,0.079962929068,11,4,0,17.367977261812,0,0,0.079962929068,0,0,0,79.2, 3.3, 1.9,0,0,432,364,364,1684,63.3,0,95,4.25,4.232,0,0,0,0,0,80.96,17.367977261812,0,41,Motors_Started,
500,2021-09-06 02:23:48,47.5726973784945,-122.62662339129,0,0,17.367977261812,17.367977261812,0.328084,0,0.100397312924,11,4,0,17.367977261812,0,0,0.100397312924,0,0,0,79.2, 3.3, 1.9,0,0,1024,1024,1024,1024,63.2,0,95,4.25,4.232,0,0,0,0,0,80.96,17.367977261812,0,41,Motors_Started,
600,2021-09-06 02:23:48,47.5726972947281,-122.626623426233,0,0,17.367977261812,17.367977261812,0.328084,0,0.13176181524,11,4,0,17.367977261812,0,0,0.13176181524,0,0,0,79.1, 3.3, 1.9,0,0,1024,1024,1024,1024,63.2,0,95,4.25,4.232,0,0,0,0,0,80.96,17.367977261812,0,41,Motors_Started,Setting new Return-To-Home altitude to 64m (210 ft). Data Recorder File Index is 32. Setting new Maximum Flight Altitude to 121m (397 ft)
700,2021-09-06 02:23:48,47.5726972328871,-122.626623411947,0,0,17.367977261812,17.367977261812,0.328084,0,0.1537647687,11,4,0,17.367977261812,0,0,0.1537647687,0,0,0,79.1, 3.3, 1.9,0,0,1024,1024,1024,1024,63.2,0,95,4.25,4.232,0,0,0,0,0,80.96,17.367977261812,0,41,Motors_Started,
800,2021-09-06 02:23:48,47.5726971665574,-122.626623401689,0,0,17.367977261812,17.367977261812,0.328084,0,0.177679467628,13,4,0,17.367977261812,0,0,0.177679467628,0,0,0,79.1, 3.3, 1.9,0,0,1024,1024,1024,1024,63.2,0,95,4.25,4.232,0,0,0,0,0,80.96,17.367977261812,0,41,Motors_Started,
900,2021-09-06 02:23:49,47.5726970523562,-122.62662339536,0,0,17.367977261812,17.367977261812,0.328084,0,0.219186030636,13,4,0,17.367977261812,0,0,0.219186030636,0,0,0,79.1, 3.3, 1.9,0,0,1024,1024,1024,1024,63.1,0,95,4.25,4.232,0,0,0,0,0,80.96,17.367977261812,0,41,Motors_Started,
1000,2021-09-06 02:23:49,47.57269696074,-122.626623397319,0,0,17.367977261812,17.367977261812,0.328084,0,0.252598761364,13,4,8.559,17.367977261812,0,0,0.252598761364,0,0,0,79.1, 3.3, 1.9,0,0,1024,1024,1024,1024,63.1,0,95,4.25,4.232,0,0,0,0,0.657,80.96,17.367977261812,0,41,Motors_Started,
1100,2021-09-06 02:23:49,47.5726969058834,-122.626623511339,0,0.032808399999999,17.335168861812,17.367977261812,0.328084,0,0.27516733164,13,4,8.559,17.367977261812,0,0,0.27516733164,0,0,0,79.1, 3.3, 1.9,0,0,1024,1024,1024,1024,63.1,0,95,4.25,4.232,0,0,0,0,0.657,80.96,17.367977261812,0,10,Assisted_Takeoff,
1200,2021-09-06 02:23:49,47.5726968474768,-122.626623642192,0,0.032808399999999,17.335168861812,17.367977261812,0.328084,0,0.302221466364,13,4,8.559,17.367977261812,0,0,0.302221466364,0,0,0,79.1, 3.3, 1.9,0,0,1024,1024,1024,1024,63.1,0,95,4.25,4.232,0,0,0,0,0.657,80.96,17.367977261812,0,10,Assisted_Takeoff,
1300,2021-09-06 02:23:49,47.5726967551481,-122.626624165867,0,0.032808399999999,17.335168861812,17.367977261812,0.328084,0,0.38375329312,13,4,8.559,17.367977261812,0,0,0.38375329312,0,0,0,79.1, 3.4, 1.9,0,0,1024,1024,1024,1024,63.1,0,95,4.25,4.232,0,0,0,0,0.657,80.96,17.367977261812,0,10,Assisted_Takeoff,
1400,2021-09-06 02:23:49,47.5726966654151,-122.626624310501,0,0.032808399999999,17.335168861812,17.367977261812,0.328084,0,0.4304626122,13,4,8.559,17.367977261812,0,0,0.4304626122,0,0,0,79.1, 3.4, 1.9,0,0,1024,1024,1024,1024,63.1,0,95,4.25,4.232,0,0,0,0,0.657,80.96,17.367977261812,0,10,Assisted_Takeoff,
1500,2021-09-06 02:23:49,47.5726966024114,-122.626624458068,0,0.032808399999999,17.335168861812,17.367977261812,0.328084,0,0.4699311174,13,4,8.559,17.367977261812,0,0,0.4699311174,0,0,0,79.1, 3.3, 1.9,0,0,1024,1024,1024,1024,63.1,0,95,4.25,4.232,0,0,0,0,0.657,80.96,17.367977261812,0,10,Assisted_Takeoff,
1600,2021-09-06 02:23:49,47.5726965447157,-122.626624596137,0,0.032808399999999,17.335168861812,17.367977261812,0.328084,0,0.50701117108,13,4,8.559,17.367977261812,0,0,0.50701117108,0,0,0,79.1, 3.3, 1.9,0,0,1024,1024,1024,1024,63.1,0,95,4.25,4.232,0,0,0,0,0.657,80.96,17.367977261812,0,10,Assisted_Takeoff,
1700,2021-09-06 02:23:49,47.572696574714,-122.626624856401,0,0.032808399999999,17.335168861812,17.367977261812,0.328084,0,0.5400590724,13,4,8.559,17.367977261812,0,0,0.5400590724,0,0,0,79.1, 3.4, 1.9,0,0,1024,1024,1024,1024,63.1,0,95,4.25,4.232,0,0,0,0,0.657,80.96,17.367977261812,0,10,Assisted_Takeoff,
1800,2021-09-06 02:23:49,47.5726965301492,-122.626624976642,0,0.032808399999999,17.335168861812,17.367977261812,0.328084,0,0.57228020204,13,4,8.559,17.367977261812,0,0,0.57228020204,0,0,0,79.1, 3.4, 1.9,0,0,1024,1024,1024,1024,63.1,0,95,4.25,4.232,0,0,0,0,0.657,80.96,17.367977261812,0,10,Assisted_Takeoff,
1900,2021-09-06 02:23:50,47.5726964832916,-122.626625090114,0,0.032808399999999,17.335168861812,17.367977261812,0.328084,0,0.60407810332,13,4,8.559,17.367977261812,0,0,0.60407810332,0,0,0,79.1, 3.4, 1.9,0,0,1024,1024,1024,1024,63.1,0,95,4.25,4.232,0,0,0,0,0.657,80.96,17.367977261812,0,10,Assisted_Takeoff,
2000,2021-09-06 02:23:50,47.5726964385729,-122.626625197096,0,0.032808399999999,17.335168861812,17.367977261812,0.328084,0,0.6342847972,13,4,8.459,17.367977261812,0,0,0.6342847972,0,0,0,79.1, 3.3, 1.9,0,0,1024,1024,1024,1024,63.1,0,95,4.257,4.239,0,0,0,0,1.48,80.96,17.367977261812,0,10,Assisted_Takeoff,
2100,2021-09-06 02:23:50,47.5726963891586,-122.626625303078,0,0.032808399999999,17.335168861812,17.367977261812,0.328084,0,0.66557088744,13,4,8.459,17.367977261812,0,0,0.66557088744,0,0,0,79.1, 3.3, 1.9,0,0,1024,1024,1024,1024,63.1,0,95,4.257,4.239,0,0,0,0,1.48,80.96,17.367977261812,0,10,Assisted_Takeoff,
2200,2021-09-06 02:23:50,47.572696403072,-122.626625392682,0,0.032808399999999,17.335168861812,17.367977261812,0.328084,0,0.678231649,13,4,8.459,17.367977261812,0,0,0.678231649,0,0,0,79.1, 3.4, 1.9,0,0,1024,1024,1024,1024,63.1,0,95,4.257,4.239,0,0,0,0,1.48,80.96,17.367977261812,0,10,Assisted_Takeoff,
2300,2021-09-06 02:23:50,47.5726963506084,-122.626625449507,0,0.032808399999999,17.335168861812,17.367977261812,0.328084,0,0.70146983872,13,4,8.459,17.367977261812,0,0,0.70146983872,0,0,0,79.1, 3.4, 1.9,0,0,1024,1024,1024,1024,63.1,0,95,4.257,4.239,0,0,0,0,1.48,80.96,17.367977261812,0,10,Assisted_Takeoff,
2400,2021-09-06 02:23:50,47.5726962996927,-122.626625500254,0,0.032808399999999,17.335168861812,17.367977261812,0.328084,0,0.72325789716,13,4,8.459,17.367977261812,0,0,0.72325789716,0,0,0,79.1, 3.4, 1.9,0,0,1024,1024,1024,1024,63.1,0,95,4.257,4.239,0,0,0,0,1.48,80.96,17.367977261812,0,10,Assisted_Takeoff,
2500,2021-09-06 02:23:50,47.5726962446333,-122.626625540614,0,0.032808399999999,17.335168861812,17.367977261812,0.328084,0,0.74427167736,13,4,8.459,17.367977261812,0,0,0.74427167736,0,0,0,79.2, 3.3, 1.9,0,0,1024,1024,1024,1024,63.1,0,95,4.257,4.239,0,0,0,0,1.48,80.96,17.367977261812,0,10,Assisted_Takeoff,
2600,2021-09-06 02:23:50,47.5726962230622,-122.626625397566,0,0.032808399999999,17.335168861812,17.367977261812,0.328084,0,0.72483926204,13,4,8.459,17.367977261812,0,0,0.74427167736,0,0,0,79.2, 3.4, 1.9,0,0,1024,1024,1024,1024,63.1,0,95,4.257,4.239,0,0,0,0,1.48,80.96,17.367977261812,0,10,Assisted_Takeoff,
2700,2021-09-06 02:23:50,47.572696218781,-122.626625441021,0,0.032808399999999,17.335168861812,17.367977261812,0.328084,0,0.73342193948,13,4,8.459,17.367977261812,0,0,0.74427167736,0,0,0,79.1, 3.4, 1.9,0,0,1024,1024,1024,1024,63.1,0,95,4.257,4.239,0,0,0,0,1.48,80.96,17.367977261812,0,10,Assisted_Takeoff,
2800,2021-09-06 02:23:50,47.5726962090657,-122.626625491588,0,0.032808399999999,17.335168861812,17.367977261812,0.328084,0,0.7447014674,13,4,8.459,17.367977261812,0,0,0.7447014674,0,0,0,79.1, 3.4, 1.9,0,0,1024,1024,1024,1024,63.1,0,95,4.257,4.239,0,0,0,0,1.48,80.96,17.367977261812,0,10,Assisted_Takeoff,
2900,2021-09-06 02:23:51,47.5726961716571,-122.6266255901,0,0.032808399999999,17.335168861812,17.367977261812,0.328084,0,0.77153545776,13,4,8.459,17.367977261812,0,0,0.77153545776,0,0,0,79.2, 3.3, 1.9,0,0,1024,1024,1024,1024,63.1,0,95,4.257,4.239,0,0,0,0,1.48,80.96,17.367977261812,0,10,Assisted_Takeoff,
3000,2021-09-06 02:23:51,47.5726962153498,-122.626625656849,0,0.032808399999999,17.335168861812,17.367977261812,0.328084,0,0.7724409696,13,4,8.499,17.367977261812,0,0,0.7724409696,0,0,0,79.2, 3.3, 1.9,0,0,1024,1024,1024,1024,63.1,0,95,4.259,4.24,0,0,0,0,1.133,81.14,17.367977261812,0,10,Assisted_Takeoff,
3100,2021-09-06 02:23:51,47.57269616035,-122.626625717215,0,0.032808399999999,17.335168861812,17.367977261812,0.328084,0,0.79698821448,13,4,8.499,17.367977261812,0,0,0.79698821448,0,0,0,79.1, 3.4, 1.9,0,0,1024,1024,1024,1024,63.1,0,95,4.259,4.24,0,0,0,0,1.133,81.14,17.367977261812,0,10,Assisted_Takeoff,
3200,2021-09-06 02:23:51,47.5726961052467,-122.626625780942,0,0.032808399999999,17.335168861812,17.367977261812,0.328084,0,0.82218834652,13,4,8.499,17.367977261812,0,0,0.82218834652,0,0,0,79.1, 3.4, 1.9,0,0,1024,1024,1024,1024,63.1,0,95,4.259,4.24,0,0,0,0,1.133,81.14,17.367977261812,0,10,Assisted_Takeoff,
3300,2021-09-06 02:23:51,47.5726960423513,-122.626625886917,0,0.032808399999999,17.335168861812,17.367977261812,0.328084,0,0.85690947624,13,4,8.499,17.367977261812,0,0,0.85690947624,0,0,0,79.1, 3.4, 1.9,0,0,1024,1024,1024,1024,63.1,0,95,4.259,4.24,0,0,0,0,1.133,81.14,17.367977261812,0,10,Assisted_Takeoff,
3400,2021-09-06 02:23:51,47.5726960308846,-122.626626062388,0,0.032808399999999,17.335168861812,17.367977261812,0.328084,0,0.8916174826,13,4,8.499,17.367977261812,0,0,0.8916174826,0,0,0,79.2, 3.3, 1.9,0,0,1024,1024,1024,1024,63.1,0,95,4.259,4.24,0,0,0,0,1.133,81.14,17.367977261812,0,10,Assisted_Takeoff,
3500,2021-09-06 02:23:51,47.5726960221708,-122.626626182363,0,0.032808399999999,17.335168861812,17.367977261812,0.328084,0,0.91598428128,13,4,8.499,17.367977261812,0,0,0.91598428128,0,0,0,79.2, 3.3, 1.9,0,0,1024,1024,1024,1024,63.1,0,95,4.259,4.24,0,0,0,0,1.133,81.14,17.367977261812,0,10,Assisted_Takeoff,
3600,2021-09-06 02:23:51,47.5726960097246,-122.626626297737,0,0.032808399999999,17.335168861812,17.367977261812,0.328084,0,0.9406496364,13,4,8.499,17.367977261812,0,0,0.9406496364,0,0,0,79.2, 3.3, 1.9,0,0,1024,1024,1024,1024,63.1,0,95,4.259,4.24,0,0,0,0,1.133,81.14,17.367977261812,0,10,Assisted_Takeoff,
3700,2021-09-06 02:23:51,47.5726959682327,-122.626626416717,0,0.032808399999999,17.335168861812,17.367977261812,0.328084,0,0.97289045108,13,4,8.499,17.367977261812,0,0,0.97289045108,0,0,0,79.2, 3.4, 1.9,0,0,1024,1024,1024,1024,63.1,0,95,4.259,4.24,0,0,0,0,1.133,81.14,17.367977261812,0,10,Assisted_Takeoff,
3800,2021-09-06 02:23:51,47.5726959334002,-122.62662653102,0,0.032808399999999,17.335168861812,17.367977261812,0.328084,0,1.00276249928,13,4,8.499,17.367977261812,0,0,1.00276249928,0,0,0,79.2, 3.4, 1.9,0,0,1024,1024,1024,1024,63.1,0,95,4.259,4.24,0,0,0,0,1.133,81.14,17.367977261812,0,10,Assisted_Takeoff,
3900,2021-09-06 02:23:52,47.5726959749215,-122.626626672154,0,0.032808399999999,17.335168861812,17.367977261812,0.328084,0,1.02094491456,13,4,8.499,17.367977261812,0,0,1.02094491456,0,0,0,79.2, 3.3, 1.9,0,0,1024,1024,1024,1024,63.1,0,95,4.259,4.24,0,0,0,0,1.133,81.14,17.367977261812,0,10,Assisted_Takeoff,
4000,2021-09-06 02:23:52,47.5726959638179,-122.626626775698,0,0.032808399999999,17.335168861812,17.367977261812,0.328084,0,1.04384189692,13,4,8.497,17.367977261812,0,0,1.04384189692,0,0,0,79.2, 3.4, 1.9,0,0,1024,1024,1024,1024,63.1,0,95,4.257,4.24,0,0,0,0,1.13,81.14,17.367977261812,0,10,Assisted_Takeoff,
4100,2021-09-06 02:23:52,47.5726959185032,-122.626626837212,0,0.032808399999999,17.335168861812,17.367977261812,0.328084,0,1.06583336744,13,4,8.497,17.367977261812,0,0,1.06583336744,0,0,0,79.2, 3.4, 1.9,0,0,1024,1024,1024,1024,63.1,0,95,4.257,4.24,0,0,0,0,1.13,81.14,17.367977261812,0,10,Assisted_Takeoff,
4200,2021-09-06 02:23:52,47.5726958793522,-122.626626892734,0,0.032808399999999,17.335168861812,17.367977261812,0.328084,0,1.08531499536,13,4,8.497,17.367977261812,0,0,1.08531499536,0,0,0,79.2, 3.5, 1.9,0,0,1024,1024,1024,1024,63.1,0,95,4.257,4.24,0,0,0,0,1.13,81.14,17.367977261812,0,10,Assisted_Takeoff,
4300,2021-09-06 02:23:52,47.5726958852496,-122.626626789844,0,0.032808399999999,17.335168861812,17.367977261812,0.328084,0,1.06378284244,13,4,8.497,17.367977261812,0,0,1.08531499536,0,0,0,79.2, 3.4, 1.9,0,0,1024,1024,1024,1024,63.1,0,95,4.257,4.24,0,0,0,0,1.13,81.14,17.367977261812,0,10,Assisted_Takeoff,
4400,2021-09-06 02:23:52,47.5726958679352,-122.626626835048,0,0.032808399999999,17.335168861812,17.367977261812,0.328084,0,1.07646328904,13,4,8.497,17.367977261812,0,0,1.08531499536,0,0,0,79.2, 3.4, 1.9,0,0,1024,1024,1024,1024,63.1,0,95,4.257,4.24,0,0,0,0,1.13,81.14,17.367977261812,0,10,Assisted_Takeoff,
4500,2021-09-06 02:23:52,47.5726958173581,-122.626626882142,0,0.032808399999999,17.335168861812,17.367977261812,0.328084,0,1.09687995636,13,4,8.497,17.367977261812,0,0,1.09687995636,0,0,0,79.2, 3.5, 1.9,0,0,1024,1024,1024,1024,63.1,0,95,4.257,4.24,0,0,0,0,1.13,81.14,17.367977261812,0,10,Assisted_Takeoff,
4600,2021-09-06 02:23:52,47.5726957732183,-122.626626928757,0,0.032808399999999,17.335168861812,17.367977261812,0.328084,0,1.115813684,13,4,8.497,17.367977261812,0,0,1.115813684,0,0,0,79.2, 3.5, 1.9,0,0,1024,1024,1024,1024,63.1,0,95,4.257,4.24,0,0,0,0,1.13,81.14,17.367977261812,0,10,Assisted_Takeoff,
4700,2021-09-06 02:23:52,47.5726957698426,-122.626626885204,0,0.032808399999999,17.335168861812,17.367977261812,0.328084,0,1.10813979924,13,4,8.497,17.367977261812,0,0,1.115813684,0,0,0,79.2, 3.4, 1.9,0,0,1024,1024,1024,1024,63.1,0,95,4.257,4.24,0,0,0,0,1.13,81.14,17.367977261812,0,10,Assisted_Takeoff,
4800,2021-09-06 02:23:52,47.5726957569119,-122.626626938519,0,0.032808399999999,17.335168861812,17.367977261812,0.328084,0,1.12137142696,13,4,8.497,17.367977261812,0,0,1.12137142696,0,0,0,79.2, 3.4, 1.9,0,0,1024,1024,1024,1024,63.1,0,95,4.257,4.24,0,0,0,0,1.13,81.14,17.367977261812,0,10,Assisted_Takeoff,
4900,2021-09-06 02:23:53,47.5726957559169,-122.626626996878,0,0.032808399999999,17.335168861812,17.367977261812,0.328084,0,1.13293310712,13,4,8.497,17.367977261812,0,0,1.13293310712,0,0,0,79.2, 3.4, 1.9,0,0,1024,1024,1024,1024,63.1,0,95,4.257,4.24,0,0,0,0,1.13,81.14,17.367977261812,0,10,Assisted_Takeoff,
5000,2021-09-06 02:23:53,47.572695747949,-122.62662704579,0,0.032808399999999,17.335168861812,17.367977261812,0.328084,0,1.14425528596,13,4,8.497,17.367977261812,0,0,1.14425528596,0,0,0,79.2, 3.4, 1.9,0,0,1024,1024,1024,1024,63.1,0,95,4.257,4.24,0,0,0,0,1.13,81.14,17.367977261812,0,10,Assisted_Takeoff,
5100,2021-09-06 02:23:53,47.5726957337326,-122.626626909699,0,0.032808399999999,17.335168861812,17.367977261812,0.328084,0,1.12105646632,13,4,8.497,17.367977261812,0,0,1.14425528596,0,0,0,79.2, 3.4, 1.9,0,0,1024,1024,1024,1024,63.1,0,95,4.257,4.24,0,0,0,0,1.13,81.14,17.367977261812,0,10,Assisted_Takeoff,
5200,2021-09-06 02:23:53,47.5726956942649,-122.626626918321,0,0.032808399999999,17.335168861812,17.367977261812,0.328084,0,1.13174872388,13,4,8.497,17.367977261812,0,0,1.14425528596,0,0,0,79.2, 3.4, 1.9,0,0,1024,1024,1024,1024,63.1,0,95,4.257,4.24,0,0,0,0,1.13,81.14,17.367977261812,0,10,Assisted_Takeoff,
5300,2021-09-06 02:23:53,47.5726956824831,-122.626626957794,0,0.032808399999999,17.335168861812,17.367977261812,0.328084,0,1.14200134888,13,4,8.497,17.367977261812,0,0,1.14425528596,0,0,0,79.2, 3.3, 1.9,0,0,1024,1024,1024,1024,63.1,0,95,4.257,4.24,0,0,0,0,1.13,81.14,17.367977261812,0,10,Assisted_Takeoff,
5400,2021-09-06 02:23:53,47.5726956747675,-122.626626988974,0,0.032808399999999,17.335168861812,17.367977261812,0.328084,0,1.14974085044,13,4,8.497,17.367977261812,0,0,1.14974085044,0,0,0,79.2, 3.3, 1.9,0,0,1024,1024,1024,1024,63.1,0,95,4.257,4.24,0,0,0,0,1.13,81.14,17.367977261812,0,10,Assisted_Takeoff,
5500,2021-09-06 02:23:53,47.5726956758985,-122.626626995933,0,0.032808399999999,17.335168861812,17.367977261812,0.328084,0,1.15081696596,13,4,8.497,17.367977261812,0,0,1.15081696596,0,0,0,79.2, 3.4, 1.9,0,0,1024,1024,1024,1024,63.1,0,95,4.257,4.24,0,0,0,0,1.13,81.14,17.367977261812,0,10,Assisted_Takeoff,
5600,2021-09-06 02:23:53,47.5726957418854,-122.626626918378,0,0.032808399999999,17.335168861812,17.367977261812,0.328084,0,1.12087273928,13,4,8.497,17.367977261812,0,0,1.15081696596,0,0,0,79.2, 3.4, 1.9,0,0,1024,1024,1024,1024,63.1,0,95,4.257,4.24,0,0,0,0,1.13,81.14,17.367977261812,0,10,Assisted_Takeoff,
5700,2021-09-06 02:23:53,47.5726956933407,-122.62662696326,0,0.032808399999999,17.335168861812,17.367977261812,0.328084,0,1.14056106012,13,4,8.497,17.367977261812,0,0,1.15081696596,0,0,0,79.2, 3.4, 1.9,0,0,1024,1024,1024,1024,63.1,0,95,4.257,4.24,0,0,0,0,1.13,81.14,17.367977261812,0,10,Assisted_Takeoff,
5800,2021-09-06 02:23:53,47.5726956431382,-122.626627018512,0,0.032808399999999,17.335168861812,17.367977261812,0.328084,0,1.16265095584,13,5,8.497,17.367977261812,0,0,1.16265095584,0,0,0,79.2, 3.4, 1.9,0,0,1024,1024,1024,1024,63.1,0,95,4.257,4.24,0,0,0,0,1.13,81.14,17.367977261812,0,10,Assisted_Takeoff,
5900,2021-09-06 02:23:54,47.5726955764225,-122.626627135105,0,0.032808399999999,17.335168861812,17.367977261812,0.328084,0,1.20027562896,13,5,8.497,17.367977261812,0,0,1.20027562896,0,0,0,79.2, 3.3, 1.9,0,0,1024,1024,1024,1024,63.1,0,95,4.257,4.24,0,0,0,0,1.13,81.14,17.367977261812,0,10,Assisted_Takeoff,
6000,2021-09-06 02:23:54,47.5726954330266,-122.626627375743,0,0.032808399999999,17.335168861812,17.367977261812,0.328084,0,1.27924216692,13,5,8.497,17.367977261812,0,0,1.27924216692,0,0,0,79.2, 3.3, 1.9,0,0,1024,1024,1024,1024,63.1,0,95,4.257,4.24,0,0,0,0,1.13,81.14,17.367977261812,0,10,Assisted_Takeoff,
6100,2021-09-06 02:23:54,47.5726954165598,-122.626627511185,0,0.032808399999999,17.335168861812,17.367977261812,0.328084,0,1.30896001564,13,5,8.497,17.367977261812,0,0,1.30896001564,0,0,0,79.2, 3.4, 1.9,0,0,1024,1024,1024,1024,63.1,0,95,4.257,4.24,0,0,0,0,1.13,81.14,17.367977261812,0,10,Assisted_Takeoff,
6200,2021-09-06 02:23:54,47.5726953952117,-122.626627631833,0,0.032808399999999,17.335168861812,17.367977261812,0.328084,0,1.33709649948,13,5,8.497,17.367977261812,0,0,1.33709649948,0,0,0,79.2, 3.4, 1.9,0,0,1024,1024,1024,1024,63.1,0,95,4.257,4.24,0,0,0,0,1.13,81.14,17.367977261812,0,10,Assisted_Takeoff,
6300,2021-09-06 02:23:54,47.5726953485332,-122.626627712223,0,0.032808399999999,17.335168861812,17.367977261812,0.328084,0,1.36317589664,13,5,8.497,17.367977261812,0,0,1.36317589664,0,0,0,79.2, 3.3, 1.8,0,0,1024,1024,1024,1024,63.1,0,95,4.257,4.24,0,0,0,0,1.13,81.14,17.367977261812,0,10,Assisted_Takeoff,
6400,2021-09-06 02:23:54,47.5726953418403,-122.626627864292,0,0.032808399999999,17.335168861812,17.367977261812,0.328084,0,1.3943077874,13,5,8.497,17.367977261812,0,0,1.3943077874,0,0,0,79.2, 3.3, 1.8,0,0,1024,1024,1024,1024,63.1,0,95,4.257,4.24,0,0,0,0,1.13,81.14,17.367977261812,0,10,Assisted_Takeoff,
6500,2021-09-06 02:23:54,47.5726953364249,-122.62662791936,0,0.032808399999999,17.335168861812,17.367977261812,0.328084,0,1.4063156618,13,5,8.497,17.367977261812,0,0,1.4063156618,0,0,0,79.2, 3.4, 1.9,0,0,1024,1024,1024,1024,63.1,0,95,4.257,4.24,0,0,0,0,1.13,81.14,17.367977261812,0,10,Assisted_Takeoff,
6600,2021-09-06 02:23:54,47.5726953349218,-122.626627958827,0,0.032808399999999,17.335168861812,17.367977261812,0.328084,0,1.41442261744,13,5,8.497,17.367977261812,0,0,1.41442261744,0,0,0,79.2, 3.4, 1.9,0,0,1024,1024,1024,1024,63.1,0,95,4.257,4.24,0,0,0,0,1.13,81.14,17.367977261812,0,10,Assisted_Takeoff,
6700,2021-09-06 02:23:54,47.5726953436332,-122.626627953155,0,0.032808399999999,17.335168861812,17.367977261812,0.328084,0,1.41140424464,13,5,8.497,17.367977261812,0,0,1.41442261744,0,0,0,79.2, 3.3, 1.9,0,0,1024,1024,1024,1024,63.1,0,95,4.257,4.24,0,0,0,0,1.13,81.14,17.367977261812,0,10,Assisted_Takeoff,
6800,2021-09-06 02:23:54,47.5726954059578,-122.62662762218,0,0.032808399999999,17.335168861812,17.367977261812,0.328084,0,1.33281172244,13,5,8.497,17.367977261812,0,0,1.41442261744,0,0,0,79.2, 3.3, 1.9,0,0,1024,1024,1024,1024,63.1,0,95,4.257,4.24,0,0,0,0,1.13,81.14,17.367977261812,0,10,Assisted_Takeoff,
6900,2021-09-06 02:23:55,47.5726953623774,-122.626627598503,0,0.032808399999999,17.335168861812,17.367977261812,0.328084,0,1.338090594,13,5,8.497,17.367977261812,0,0,1.41442261744,0,0,0,79.2, 3.3, 1.9,0,0,1024,1024,1024,1024,63.1,0,95,4.257,4.24,0,0,0,0,1.13,81.14,17.367977261812,0,10,Assisted_Takeoff,
7000,2021-09-06 02:23:55,47.5726953261201,-122.626627575212,0,0.032808399999999,17.335168861812,17.367977261812,0.328084,0,1.34194230016,13,5,8.496,17.367977261812,0,0,1.41442261744,0,0,0,79.2, 3.3, 1.9,0,0,1024,1024,1024,1024,63.1,0,95,4.256,4.239,0,0,0,0,1.102,81.14,17.367977261812,0,10,Assisted_Takeoff,
7100,2021-09-06 02:23:55,47.5726953143,-122.626627556678,0,0.032808399999999,17.335168861812,17.367977261812,0.328084,0,1.34115161772,13,5,8.496,17.367977261812,0,0,1.41442261744,0,0,0,79.2, 3.4, 1.8,0,0,1024,1024,1130,1024,63.1,0,95,4.256,4.239,0,0,0,0,1.102,81.14,17.367977261812,0,10,Assisted_Takeoff,
7200,2021-09-06 02:23:55,47.5726952959548,-122.626627529973,0,0.032808399999999,17.335168861812,17.367977261812,0.328084,0,1.3403707778,13,5,8.496,17.367977261812,0,0,1.41442261744,0,0,0,79.2, 3.3, 1.8,0,0,1024,1024,1232,1024,63.1,0,95,4.256,4.239,0,0,0,0,1.102,81.14,17.367977261812,0,10,Assisted_Takeoff,
7300,2021-09-06 02:23:55,47.5726952403882,-122.626627298231,0,0.032808399999999,17.335168861812,17.367977261812,0.328084,0,1.31064964824,13,5,8.496,17.367977261812,0,0,1.41442261744,0,0,0,79.2, 3.3, 1.8,0,0,1024,1024,1232,1024,63.1,0,95,4.256,4.239,0,0,0,0,1.102,81.14,17.367977261812,0,10,Assisted_Takeoff,
7400,2021-09-06 02:23:55,47.5726952020115,-122.626627248128,0,0.032808399999999,17.335168861812,17.367977261812,0.328084,0,1.31104334904,13,5,8.496,17.367977261812,0,0,1.41442261744,0,0,0,79.2, 3.3, 1.8,0,0,1024,1024,1258,1024,63.1,0,95,4.256,4.239,0,0,0,0,1.102,81.14,17.367977261812,0,10,Assisted_Takeoff,
7500,2021-09-06 02:23:55,47.5726951928222,-122.626627232317,0,0.032808399999999,17.335168861812,17.367977261812,0.328084,0,1.31049216792,13,5,8.496,17.367977261812,0,0,1.41442261744,0,0,0,79.2, 3.3, 1.8,0,0,1024,1024,1271,1024,63.1,0,95,4.256,4.239,0,0,0,0,1.102,81.14,17.367977261812,0,10,Assisted_Takeoff,
7600,2021-09-06 02:23:55,47.5726951877952,-122.626627211741,0,0.032808399999999,17.335168861812,17.367977261812,0.328084,0,1.30806762716,13,5,8.496,17.367977261812,0,0,1.41442261744,0,0,0,79.3, 3.3, 1.8,0,0,1024,1024,1269,1024,63.1,0,95,4.256,4.239,0,0,0,0,1.102,81.14,17.367977261812,0,10,Assisted_Takeoff,
7700,2021-09-06 02:23:55,47.5726952620954,-122.626627105463,0,0.032808399999999,17.335168861812,17.367977261812,0.328084,0,1.27043311152,13,5,8.496,17.367977261812,0,0,1.41442261744,0,0,0,79.3, 3.2, 1.8,0,0,1024,1024,1269,1024,63.1,0,95,4.256,4.239,0,0,0,0,1.102,81.14,17.367977261812,0,10,Assisted_Takeoff,
7800,2021-09-06 02:23:55,47.5726952607055,-122.626627057042,0,0.032808399999999,17.335168861812,17.367977261812,0.328084,0,1.26214570968,13,5,8.496,17.367977261812,0,0,1.41442261744,0,0,0,79.5, 1.4, 1.8,0,0,1024,1024,1278,1024,63.2,0,95,4.256,4.239,0,0,0,0,1.102,81.14,17.367977261812,0,10,Assisted_Takeoff,
7900,2021-09-06 02:23:56,47.5726952073805,-122.626626999381,0,0.032808399999999,17.335168861812,17.367977261812,0.328084,0,1.2655676258,13,5,8.496,17.367977261812,0,0,1.41442261744,0,0,0,79.6, -1.1, 0.2,0,0,1024,1024,1298,1024,63.2,0,95,4.256,4.239,0,0,0,0,1.102,81.14,17.367977261812,0,10,Assisted_Takeoff,
8000,2021-09-06 02:23:56,47.572695155727,-122.626626960787,0,0.032808399999999,17.335168861812,17.367977261812,0.328084,0,1.27227038192,13,5,8.494,17.367977261812,0,0,1.41442261744,0,0,-0.223694,78.9, -0.8, -0.7,0,0,1024,1024,1296,1024,63.2,0,95,4.222,4.199,0,0,0,0,1.105,81.14,17.367977261812,0,10,Assisted_Takeoff,
8100,2021-09-06 02:23:56,47.5726951149557,-122.626626963405,0,0.032808399999999,17.335168861812,17.367977261812,0.328084,0,1.28340883372,13,5,8.494,17.367977261812,0,0,1.41442261744,0,0,-0.447388,78.7, -0.9, -1.2,0,0,1024,1024,1296,1024,63.2,0,95,4.222,4.199,0,0,0,0,1.105,81.14,17.367977261812,0,6,P-GPS,
8200,2021-09-06 02:23:56,47.5726951321838,-122.626626974587,0,0.032808399999999,17.335168861812,17.367977261812,0.656168,0,1.28079728508,13,5,8.494,17.367977261812,0,0,1.41442261744,0,0,-0.671082,78.9, -1.1, 0.1,0,0,1024,1024,1297,1024,63.2,0,95,4.222,4.199,0,0,0,0,1.105,81.14,17.367977261812,0,6,P-GPS,
8300,2021-09-06 02:23:56,47.572695177913,-122.626626991587,0,0.032808399999999,17.335168861812,17.367977261812,0.656168,0,1.27181434516,13,5,8.494,17.367977261812,0,0,1.41442261744,0,0,-0.894776,79, 0.1, 0.7,0,0,1024,1024,1297,1024,63.2,0,95,4.222,4.199,0,0,0,0,1.105,81.14,17.367977261812,0,6,P-GPS,
8400,2021-09-06 02:23:56,47.5726952117251,-122.626627030114,0,0.032808399999999,17.335168861812,17.367977261812,0.656168,0,1.2698327178,13,5,8.494,17.367977261812,0,0,1.41442261744,0,0,-1.11847,79, -0.1, 0.8,0,0,1024,1024,1308,1024,63.2,0,95,4.222,4.199,0,0,0,0,1.105,81.14,17.367977261812,0,6,P-GPS,
8500,2021-09-06 02:23:56,47.5726952035626,-122.626627298288,0.328084,0.3608924,17.335168861812,17.696061261812,0.984252,0,1.31971789,13,5,8.494,17.696061261812,0.328084,0,1.41442261744,0,0,-1.342164,78.9, -0.4, 1.2,0,0,1024,1024,1306,1024,63.2,0,95,4.222,4.199,0,0,0,0,1.105,81.14,17.696061261812,0.328084,6,P-GPS,
8600,2021-09-06 02:23:56,47.5726951897648,-122.626627396022,0.656168,0.6889764,17.335168861812,18.024145261812,0.984252,0,1.34088915052,13,5,8.494,18.024145261812,0.656168,0,1.41442261744,0,0,-1.342164,78.8, -0.8, 1,0,0,1024,1024,1288,1024,63.2,0,95,4.222,4.199,0,0,0,0,1.105,81.14,18.024145261812,0.656168,6,P-GPS,Homepoint updated. RTH altitude adjusted to 210 ft (Code: 120852)
8700,2021-09-06 02:23:56,47.5726951801928,-122.626627400544,0.656168,0.6889764,17.335168861812,18.024145261812,1.312336,0,1.34405844196,13,5,8.494,18.024145261812,0.656168,0,1.41442261744,0,0,-1.565858,78.8, -1.4, 0.2,0,0,1024,1024,1286,1024,63.2,0,95,4.222,4.199,0,0,0,0,1.105,81.14,18.024145261812,0.656168,6,P-GPS,
8800,2021-09-06 02:23:56,47.5726951614022,-122.626627398928,0.984252,1.0170604,17.335168861812,18.352229261812,1.64042,0,1.3483760274,13,5,8.494,18.352229261812,0.984252,0,1.41442261744,0,0,-1.789552,78.9, -1.9, -0.2,0,0,1024,1024,1286,1024,63.2,0,95,4.222,4.199,0,0,0,0,1.105,81.14,18.352229261812,0.984252,6,P-GPS,
8900,2021-09-06 02:23:57,47.5726951229904,-122.626627307793,1.312336,1.3451444,17.335168861812,18.680313261812,1.968504,0,1.34149282508,13,5,8.494,18.680313261812,1.312336,0,1.41442261744,0,0,-1.789552,79, -2.4, -1.3,0,0,1024,1024,1290,1024,63.2,0,95,4.222,4.199,0,0,0,0,1.105,81.14,18.680313261812,1.312336,6,P-GPS,
9000,2021-09-06 02:23:57,47.572695098795,-122.626626817125,1.64042,1.6732284,17.335168861812,19.008397261812,1.968504,0,1.26308402992,13,5,8.241,19.008397261812,1.64042,0,1.41442261744,0,0,-1.789552,79, -2.2, -1.3,0,0,1024,1024,1290,1024,63.2,0,95,4.091,4.066,0,0,0,0,3.321,81.14,19.008397261812,1.64042,6,P-GPS,
9100,2021-09-06 02:23:57,47.5726951604357,-122.626626866894,1.968504,2.0013124,17.335168861812,19.336481261812,2.296588,0,1.25500004016,13,5,8.241,19.336481261812,1.968504,0,1.41442261744,0,0,-1.789552,79, -2.6, -0.8,0,0,1024,1024,1305,1024,63.2,0,95,4.091,4.066,0,0,0,0,3.321,81.14,19.336481261812,1.968504,6,P-GPS,
9200,2021-09-06 02:23:57,47.5726952119572,-122.626626914522,2.296588,2.3293964,17.335168861812,19.664565261812,2.624672,0,1.24964570928,13,5,8.241,19.664565261812,2.296588,0,1.41442261744,0,0,-1.789552,79, -2.3, -0.5,0,0,1024,1024,1316,1024,63.2,0,95,4.091,4.066,0,0,0,0,3.321,81.14,19.664565261812,2.296588,6,P-GPS,
9300,2021-09-06 02:23:57,47.5726951358836,-122.626627015192,2.296588,2.3293964,17.335168861812,19.664565261812,2.952756,0,1.2868110648,13,5,8.241,19.664565261812,2.296588,0,1.41442261744,0,0,-1.789552,78.9, -2.2, -1,0,0,1024,1024,1307,1024,63.2,0,95,4.091,4.066,0,0,0,0,3.321,81.14,19.664565261812,2.296588,6,P-GPS,
9400,2021-09-06 02:23:57,47.5726949569437,-122.626627484486,2.624672,2.6574804,17.335168861812,19.992649261812,3.28084,0,1.41480319488,14,5,8.241,19.992649261812,2.624672,0,1.41480319488,0,0,-2.013246,77, -2, -0.5,0,0,1024,1024,1341,1024,63.2,0,95,4.091,4.066,0,0,0,0,3.321,81.14,19.992649261812,2.624672,6,P-GPS,
9500,2021-09-06 02:23:57,47.5726950452029,-122.626627693395,2.952756,2.9855644,17.335168861812,20.320733261812,3.608924,0,1.43060043948,14,5,8.241,20.320733261812,2.952756,0,1.43060043948,0,0,-2.013246,73.5, -2, 0,0,0,1024,1024,1357,1024,63.2,0,95,4.091,4.066,0,0,0,0,3.321,81.14,20.320733261812,2.952756,6,P-GPS,
9600,2021-09-06 02:23:57,47.572695135387,-122.626627879468,3.28084,3.3136484,17.335168861812,20.648817261812,3.937008,0,1.443979705,14,5,8.241,20.648817261812,3.28084,0,1.443979705,0,0,-2.013246,69.5, -2.1, 0.1,0,0,1024,1024,1358,1024,63.2,0,95,4.091,4.066,0,0,0,0,3.321,81.14,20.648817261812,3.28084,6,P-GPS,
9700,2021-09-06 02:23:57,47.5726952648458,-122.626628012186,3.608924,3.6417324,17.335168861812,20.976901261812,4.265092,0,1.44028876,14,5,8.241,20.976901261812,3.608924,0,1.443979705,0,0,-2.23694,65.3, -2.2, 0,0,0,1024,1024,1370,1024,63.2,0,95,4.091,4.066,0,0,0,0,3.321,81.14,20.976901261812,3.608924,6,P-GPS,
9800,2021-09-06 02:23:57,47.5726954862702,-122.626628606999,3.937008,3.9698164,17.335168861812,21.304985261812,4.593176,0,1.51575792252,14,5,8.241,21.304985261812,3.937008,0,1.51575792252,0,0,-2.23694,61, -2.2, -0.1,0,0,1024,1024,1370,1024,63.2,0,95,4.091,4.066,0,0,0,0,3.321,81.14,21.304985261812,3.937008,6,P-GPS,
9900,2021-09-06 02:23:58,47.5726954541394,-122.626628487145,4.265092,4.2979004,17.335168861812,21.633069261812,4.92126,0,1.49690949672,14,5,8.241,21.633069261812,4.265092,0,1.51575792252,0,0,-2.460634,57, -2, -0.1,0,0,1024,1024,1367,1024,63.2,0,95,4.091,4.066,0,0,0,0,3.321,81.14,21.633069261812,4.265092,6,P-GPS,
10000,2021-09-06 02:23:58,47.5726954346852,-122.626628339296,4.593176,4.6259844,17.335168861812,21.961153261812,5.577428,0,1.47020673996,14,5,8.179,21.961153261812,4.593176,0,1.51575792252,0,0,-2.460634,52.8, -2, -0.3,0,0,1024,1024,1367,1024,63.2,0,95,4.094,4.065,0,0,0,0,5.042,81.14,21.961153261812,4.593176,6,P-GPS,
10100,2021-09-06 02:23:58,47.572695502128,-122.626628085089,4.92126,4.9540684,17.335168861812,22.289237261812,5.905512,0,1.40448823392,14,5,8.179,22.289237261812,4.92126,0,1.51575792252,0,0,-2.460634,49.3, -2.2, -0.1,0,0,1024,1024,1370,1024,63.2,0,95,4.094,4.065,0,0,0,0,5.042,81.14,22.289237261812,4.92126,6,P-GPS,
10200,2021-09-06 02:23:58,47.5726955696498,-122.626626875056,5.249344,5.2821524,17.335168861812,22.617321261812,6.233596,0,1.15295607364,14,5,8.179,22.617321261812,5.249344,0,1.51575792252,0,0,-2.460634,45.5, -2.1, -0.2,0,0,1024,1024,1370,1024,63.2,0,95,4.094,4.065,0,0,0,0,5.042,81.14,22.617321261812,5.249344,6,P-GPS,
10300,2021-09-06 02:23:58,47.5726956368907,-122.626626634338,5.577428,5.6102364,17.335168861812,22.945405261812,6.56168,0,1.09241801396,14,5,8.179,22.945405261812,5.577428,0,1.51575792252,0,0,-2.684328,42.1, -2, -0.4,0,0,1024,1024,1370,1024,63.2,0,95,4.094,4.065,0,0,0,0,5.042,81.14,22.945405261812,5.577428,6,P-GPS,
10400,2021-09-06 02:23:58,47.5726956917383,-122.626626426154,6.233596,6.2664044,17.335168861812,23.601573261812,6.889764,0,1.0412401908,14,5,8.179,23.601573261812,6.233596,0,1.51575792252,0,0,-2.684328,39, -2, -0.7,0,0,1024,1024,1373,1024,63.2,0,95,4.094,4.065,0,0,0,0,5.042,81.14,23.601573261812,6.233596,6,P-GPS,
10500,2021-09-06 02:23:58,47.5726956955701,-122.626626413032,6.56168,6.5944884,17.335168861812,23.929657261812,7.545932,0,1.03793310408,14,5,8.179,23.929657261812,6.56168,0,1.51575792252,0,0,-2.460634,36.1, -2, -1.2,0,0,1024,1024,1374,1024,63.2,0,95,4.094,4.065,0,0,0,0,5.042,81.14,23.929657261812,6.56168,6,P-GPS,
10600,2021-09-06 02:23:58,47.5726956938341,-122.626626423682,6.889764,6.9225724,17.335168861812,24.257741261812,7.874016,0,1.040272343,14,5,8.179,24.257741261812,6.889764,0,1.51575792252,0,0,-2.460634,33.3, -1.9, -1.3,0,0,1024,1024,1377,1024,63.2,0,95,4.094,4.065,0,0,0,0,5.042,81.14,24.257741261812,6.889764,6,P-GPS,
10700,2021-09-06 02:23:58,47.5726955299565,-122.626627128586,7.217848,7.2506564,17.335168861812,24.585825261812,8.2021,0,1.20980975,14,5,8.179,24.585825261812,7.217848,0,1.51575792252,0,0,-2.684328,30.7, -1.9, -0.8,0,0,1024,1024,1377,1024,63.2,0,95,4.094,4.065,0,0,0,0,5.042,81.14,24.585825261812,7.217848,6,P-GPS,
10800,2021-09-06 02:23:58,47.5726954951892,-122.626627252024,7.545932,7.5787404,17.335168861812,24.913909261812,8.530184,0,1.24131237568,14,5,8.179,24.913909261812,7.545932,0,1.51575792252,0,0,-2.684328,28.4, -2.3, -0.8,0,0,1024,1024,1380,1024,63.2,0,95,4.094,4.065,0,0,0,0,5.042,81.14,24.913909261812,7.545932,6,P-GPS,
10900,2021-09-06 02:23:59,47.5726954132418,-122.626627406632,7.874016,7.9068244,17.335168861812,25.241993261812,8.858268,0,1.289698204,14,5,8.179,25.241993261812,7.874016,0,1.51575792252,0,0,-2.684328,26, -2.1, -0.9,0,0,1024,1024,1392,1024,63.2,0,95,4.094,4.065,0,0,0,0,5.042,81.14,25.241993261812,7.874016,6,P-GPS,
11000,2021-09-06 02:23:59,47.5726953551715,-122.626627542071,8.2021,8.2349084,17.335168861812,25.570077261812,9.186352,0,1.32892392704,14,5,8.179,25.570077261812,8.2021,0,1.51575792252,0,0,-2.684328,23.9, -2.4, -1.1,0,0,1024,1024,1403,1024,63.2,0,95,4.095,4.071,0,0,0,0,5.042,81.14,25.570077261812,8.2021,6,P-GPS,
11100,2021-09-06 02:23:59,47.5726954312068,-122.626627938371,8.858268,8.8910764,17.335168861812,26.226245261812,9.84252,0,1.38961290536,14,5,8.179,26.226245261812,8.858268,0,1.51575792252,0,0,-2.684328,21.9, -2.2, -0.9,0,0,1024,1024,1400,1024,63.2,0,95,4.095,4.071,0,0,0,0,5.042,81.14,26.226245261812,8.858268,6,P-GPS,
11200,2021-09-06 02:23:59,47.572695497399,-122.626627938452,9.186352,9.2191604,17.335168861812,26.554329261812,10.170604,0,1.37568573956,14,5,8.179,26.554329261812,9.186352,0,1.51575792252,0,0,-2.908022,20, -1.9, -0.7,0,0,1024,1024,1411,1024,63.2,0,95,4.095,4.071,0,0,0,0,5.042,81.14,26.554329261812,9.186352,6,P-GPS,
11300,2021-09-06 02:23:59,47.5726955309971,-122.626627621188,9.514436,9.5472444,17.335168861812,26.882413261812,10.498688,0,1.30505581604,14,5,8.179,26.882413261812,9.514436,0,1.51575792252,0,0,-2.908022,18.2, -1.8, -1.3,0,0,1024,1024,1421,1024,63.2,0,95,4.095,4.071,0,0,0,0,5.042,81.14,26.882413261812,9.514436,6,P-GPS,
11400,2021-09-06 02:23:59,47.5726955693103,-122.626627346937,10.170604,10.2034124,17.335168861812,27.538581261812,10.826772,0,1.24274610276,14,5,8.179,27.538581261812,10.170604,0,1.51575792252,0,0,-2.908022,16.5, -1.7, -1.4,0,0,1024,1024,1430,1024,63.2,0,95,4.095,4.071,0,0,0,0,5.042,81.14,27.538581261812,10.170604,6,P-GPS,
11500,2021-09-06 02:23:59,47.5726957330511,-122.626626689821,10.498688,10.5314964,17.335168861812,27.866665261812,11.154856,0,1.07947181932,14,5,8.179,27.866665261812,10.498688,0,1.51575792252,0,0,-2.908022,14.9, -1.5, -1,0,0,1024,1024,1430,1024,63.2,0,95,4.095,4.071,0,0,0,0,5.042,81.14,27.866665261812,10.498688,6,P-GPS,
11600,2021-09-06 02:23:59,47.5726958111236,-122.626626610924,10.826772,10.8595804,17.335168861812,28.194749261812,11.48294,0,1.04625331432,14,5,8.179,28.194749261812,10.826772,0,1.51575792252,0,0,-3.131716,13.5, -1.1, -1,0,0,1024,1024,1457,1024,63.2,0,94,4.095,4.071,0,0,0,0,5.042,81.14,28.194749261812,10.826772,6,P-GPS,
11700,2021-09-06 02:23:59,47.572695937236,-122.626626543298,11.48294,11.5157484,17.335168861812,28.850917261812,12.139108,0,1.0042487198,14,5,8.179,28.850917261812,11.48294,0,1.51575792252,0,0,-3.35541,12.1, -0.9, -0.7,0,0,1024,1024,1458,1024,63.2,0,94,4.095,4.071,0,0,0,0,5.042,81.14,28.850917261812,11.48294,6,P-GPS,
11800,2021-09-06 02:23:59,47.5726960345673,-122.626626516176,11.811024,11.8438324,17.335168861812,29.179001261812,12.467192,0,0.97718507064,14,5,8.179,29.179001261812,11.811024,0,1.51575792252,0,0,-3.35541,10.7, -1, -0.5,0,0,1024,1024,1470,1024,63.2,0,94,4.095,4.071,0,0,0,0,5.042,81.14,29.179001261812,11.811024,6,P-GPS,
11900,2021-09-06 02:24:00,47.5726959945882,-122.626626955195,12.467192,12.5000004,17.335168861812,29.835169261812,13.12336,0,1.0734580396,14,5,8.179,29.835169261812,12.467192,0,1.51575792252,0,0,-3.579104,9.5, -0.3, -0.6,0,0,1024,1024,1475,1024,63.2,0,94,4.095,4.071,0,0,0,0,5.042,81.14,29.835169261812,12.467192,6,P-GPS,
12000,2021-09-06 02:24:00,47.5726959671017,-122.626627078826,12.795276,12.8280844,17.335168861812,30.163253261812,13.451444,0,1.10428481224,14,5,8.168,30.163253261812,12.795276,0,1.51575792252,0,0,-3.579104,8.5, -0.5, -0.4,0,0,1024,1024,1472,1024,63.2,0,94,4.074,4.049,0,0,0,0,4.861,81.32,30.163253261812,12.795276,6,P-GPS,
12100,2021-09-06 02:24:00,47.5726959987595,-122.626626986555,13.451444,13.4842524,17.335168861812,30.819421261812,14.107612,0,1.07899281668,14,5,8.168,30.819421261812,13.451444,0,1.51575792252,0,0,-3.802798,7.4, -1, 0,0,0,1024,1024,1463,1024,63.2,0,94,4.074,4.049,0,0,0,0,4.861,81.32,30.819421261812,13.451444,6,P-GPS,
12200,2021-09-06 02:24:00,47.5726960244978,-122.62662687171,13.779528,13.8123364,17.335168861812,31.147505261812,14.435696,0,1.05033796012,14,5,8.168,31.147505261812,13.779528,0,1.51575792252,0,0,-3.802798,6.4, -1.3, 0,0,0,1024,1024,1470,1024,63.2,0,94,4.074,4.049,0,0,0,0,4.861,81.32,31.147505261812,13.779528,6,P-GPS,
12300,2021-09-06 02:24:00,47.572696084576,-122.626626639307,14.435696,14.4685044,17.335168861812,31.803673261812,14.76378,0,0.9908628926,14,5,8.168,31.803673261812,14.435696,0,1.51575792252,0,0,-3.802798,5.4, -1.3, 0.1,0,0,1024,1024,1491,1024,63.2,0,94,4.074,4.049,0,0,0,0,4.861,81.32,31.803673261812,14.435696,6,P-GPS,
12400,2021-09-06 02:24:00,47.572696286556,-122.626625882484,14.76378,14.7965884,17.335168861812,32.131757261812,15.091864,0,0.79761813576,14,5,8.168,32.131757261812,14.76378,0,1.51575792252,0,0,-3.802798,4.5, -1.3, -0.1,0,0,1024,1024,1491,1024,63.2,0,94,4.074,4.049,0,0,0,0,4.861,81.32,32.131757261812,14.76378,6,P-GPS,
12500,2021-09-06 02:24:00,47.5726963139749,-122.626625602436,15.419948,15.4527564,17.335168861812,32.787925261812,15.419948,0,0.7383858504,14,5,8.168,32.787925261812,15.419948,0,1.51575792252,0,0,-3.802798,3.6, -1.4, 0,0,0,1024,1024,1498,1024,63.2,0,94,4.074,4.049,0,0,0,0,4.861,81.32,32.787925261812,15.419948,6,P-GPS,
12600,2021-09-06 02:24:00,47.5726963562111,-122.626625362822,15.748032,15.7808404,17.335168861812,33.116009261812,16.076116,0,0.68450461508,14,5,8.168,33.116009261812,15.748032,0,1.51575792252,0,0,-3.802798,2.8, -1.4, 0.2,0,0,1024,1024,1500,1024,63.2,0,94,4.074,4.049,0,0,0,0,4.861,81.32,33.116009261812,15.748032,6,P-GPS,
12700,2021-09-06 02:24:00,47.5726964638504,-122.626625296343,16.4042,16.4370084,17.335168861812,33.772177261812,16.4042,0,0.6457677372,14,5,8.168,33.772177261812,16.4042,0,1.51575792252,0,0,-4.026492,2.1, -1.1, 1.1,0,0,1024,1024,1501,1024,63.2,0,94,4.074,4.049,0,0,0,0,4.861,81.32,33.772177261812,16.4042,6,P-GPS,
12800,2021-09-06 02:24:00,47.5726966827515,-122.626625107177,17.060368,17.0931764,17.335168861812,34.428345261812,16.732284,0,0.5583333512,15,5,8.168,34.428345261812,17.060368,0,1.51575792252,0,0,-4.026492,1.6, -0.9, 0.8,0,0,1024,1024,1498,1024,63.2,0,94,4.074,4.049,0,0,0,0,4.861,81.32,34.428345261812,17.060368,6,P-GPS,
12900,2021-09-06 02:24:01,47.5726967726799,-122.626625099265,17.388452,17.4212604,17.335168861812,34.756429261812,17.388452,0,0.536581382,15,5,8.168,34.756429261812,17.388452,0,1.51575792252,0,0,-4.026492,0.9, -1, 0.8,0,0,1024,1024,1499,1024,63.2,0,94,4.074,4.049,0,0,0,0,4.861,81.32,34.756429261812,17.388452,6,P-GPS,
13000,2021-09-06 02:24:01,47.5726968962397,-122.626625081928,18.04462,18.0774284,17.335168861812,35.412597261812,18.04462,0,0.50730644668,15,5,8.134,35.412597261812,18.04462,0,1.51575792252,0,0,-4.250186,0.1, -0.8, 0.8,0,0,1024,1024,1499,1024,63.2,0,94,4.059,4.034,0,0,0,0,5.02,81.32,35.412597261812,18.04462,6,P-GPS,
13100,2021-09-06 02:24:01,47.572697229491,-122.626625092339,18.700788,18.7335964,17.335168861812,36.068765261812,18.372704,0,0.45523951588,15,5,8.134,36.068765261812,18.700788,0,1.51575792252,0,0,-4.250186,359.6, -0.7, -0.1,0,0,1024,1024,1508,1024,63.2,0,94,4.059,4.034,0,0,0,0,5.02,81.32,36.068765261812,18.700788,6,P-GPS,
13200,2021-09-06 02:24:01,47.5726979660216,-122.626625610281,19.028872,19.0616804,17.335168861812,36.396849261812,19.028872,0,0.5674376822,15,5,8.134,36.396849261812,19.028872,0,1.51575792252,0,0,-4.250186,359.3, -0.8, -0.9,0,0,1024,1024,1542,1024,63.2,0,94,4.059,4.034,0,0,0,0,5.02,81.32,36.396849261812,19.028872,6,P-GPS,
13300,2021-09-06 02:24:01,47.5726982075833,-122.626625735296,19.68504,19.7178484,17.335168861812,37.053017261812,19.356956,0,0.62054135844,15,5,8.134,37.053017261812,19.68504,0,1.51575792252,0,0,-4.250186,358.7, -0.9, -0.2,0,0,1024,1024,1538,1024,63.2,0,94,4.059,4.034,0,0,0,0,5.02,81.32,37.053017261812,19.68504,6,P-GPS,
13400,2021-09-06 02:24:01,47.5726984461227,-122.626625843751,20.341208,20.3740164,17.335168861812,37.709185261812,20.013124,0,0.6781824364,15,5,8.134,37.709185261812,20.341208,0,1.51575792252,0,0,-4.47388,358.2, -0.6, -0.3,0,0,1024,1024,1538,1024,63.2,0,94,4.059,4.034,0,0,0,0,5.02,81.32,37.709185261812,20.341208,6,P-GPS,
13500,2021-09-06 02:24:01,47.5726986940419,-122.626625851754,20.997376,21.0301844,17.335168861812,38.365353261812,20.997376,0,0.72313322524,15,5,8.134,38.365353261812,20.997376,0,1.51575792252,0,0,-4.47388,357.8, -0.1, -0.9,0,0,1024,1024,1538,1024,63.2,0,94,4.059,4.034,0,0,0,0,5.02,81.32,38.365353261812,20.997376,6,P-GPS,
13600,2021-09-06 02:24:01,47.5726991124372,-122.626626129833,21.653544,21.6863524,17.335168861812,39.021521261812,21.981628,0,0.86669294112,15,5,8.134,39.021521261812,21.653544,0,1.51575792252,0,0,-4.47388,357.1, 0.1, -1.5,0,0,1024,1024,1554,1024,63.2,0,94,4.059,4.034,0,0,0,0,5.02,81.32,39.021521261812,21.653544,6,P-GPS,
13700,2021-09-06 02:24:01,47.5726993401279,-122.626626060762,22.309712,22.3425204,17.335168861812,39.677689261812,22.96588,0,0.90752627576,15,5,8.134,39.677689261812,22.309712,0,1.51575792252,0,0,-4.697574,356.9, 0.1, -0.6,0,0,1024,1024,1601,1024,63.2,0,94,4.059,4.034,0,0,0,0,5.02,81.32,39.677689261812,22.309712,6,P-GPS,
13800,2021-09-06 02:24:01,47.572699535671,-122.626625988706,22.96588,22.9986884,17.335168861812,40.333857261812,23.950132,0,0.94510501712,15,5,8.134,40.333857261812,22.96588,0,1.51575792252,0,0,-4.921268,356.7, -0.4, -0.1,0,0,1024,1024,1605,1024,63.2,0,94,4.059,4.034,0,0,0,0,5.02,81.32,40.333857261812,22.96588,6,P-GPS,
13900,2021-09-06 02:24:02,47.5726996929368,-122.626625866611,23.622048,23.6548564,17.335168861812,40.990025261812,24.934384,0,0.96812339056,15,5,8.134,40.990025261812,23.622048,0,1.51575792252,0,0,-5.144962,356.3, 0, -0.8,0,0,1024,1024,1608,1024,63.2,0,94,4.059,4.034,0,0,0,0,5.02,81.32,40.990025261812,23.622048,6,P-GPS,
14000,2021-09-06 02:24:02,47.572699852276,-122.626625707137,24.278216,24.3110244,17.335168861812,41.646193261812,26.24672,0,0.99002955924,15,5,8.109,41.646193261812,24.278216,0,1.51575792252,0,0,-5.368656,355.9, 0.7, -1.1,0,0,1024,1024,1631,1024,63.2,0,94,4.057,4.028,0,0,0,0,5.404,81.5,41.646193261812,24.278216,6,P-GPS,
14100,2021-09-06 02:24:02,47.5726999134399,-122.626624718364,24.934384,24.9671924,17.335168861812,42.302361261812,26.902888,0,0.89082680016,15,5,8.109,42.302361261812,24.934384,0,1.51575792252,0,0,-5.368656,355.6, 1.2, -0.9,0,0,1024,1024,1638,1024,63.2,0,94,4.057,4.028,0,0,0,0,5.404,81.5,42.302361261812,24.934384,6,P-GPS,
14200,2021-09-06 02:24:02,47.572700060762,-122.626624387858,25.918636,25.9514444,17.335168861812,43.286613261812,27.88714,0,0.91490488492,15,5,8.109,43.286613261812,25.918636,0,1.51575792252,0,0,-5.59235,355.2, 0.9, -1.2,0,0,1024,1024,1644,1024,63.2,0,94,4.057,4.028,0,0,0,0,5.404,81.5,43.286613261812,25.918636,6,P-GPS,
14300,2021-09-06 02:24:02,47.5727001666703,-122.626624241017,26.574804,26.6076124,17.335168861812,43.942781261812,28.871392,0,0.9430446496,15,5,8.109,43.942781261812,26.574804,0,1.51575792252,0,0,-5.816044,354.9, 0.7, -0.7,0,0,1024,1024,1644,1024,63.2,0,94,4.057,4.028,0,0,0,0,5.404,81.5,43.942781261812,26.574804,6,P-GPS,
14400,2021-09-06 02:24:02,47.5727002473414,-122.626624110604,27.559056,27.5918644,17.335168861812,44.927033261812,29.855644,0,0.96498034584,15,5,8.109,44.927033261812,27.559056,0,1.51575792252,0,0,-6.039738,354.8, 0.5, -0.9,0,0,1024,1024,1642,1024,63.2,0,94,4.057,4.028,0,0,0,0,5.404,81.5,44.927033261812,27.559056,6,P-GPS,
14500,2021-09-06 02:24:02,47.5727001990775,-122.626624147649,28.215224,28.2480324,17.335168861812,45.583201261812,30.839896,0,0.94954727448,15,5,8.109,45.583201261812,28.215224,0,1.51575792252,0,0,-6.039738,354.6, 0.1, -1,0,0,1024,1024,1650,1024,63.2,0,94,4.057,4.028,0,0,0,0,5.404,81.5,45.583201261812,28.215224,6,P-GPS,
14600,2021-09-06 02:24:02,47.5727002464441,-122.62662409922,28.871392,28.9042004,17.335168861812,46.239369261812,31.824148,0,0.96412076576,15,5,8.109,46.239369261812,28.871392,0,1.51575792252,0,0,-6.039738,354.3, -0.1, -1.1,0,0,1024,1024,1666,1024,63.2,0,94,4.057,4.028,0,0,0,0,5.404,81.5,46.239369261812,28.871392,6,P-GPS,
14700,2021-09-06 02:24:02,47.5727002893597,-122.626624202711,29.855644,29.8884524,17.335168861812,47.223621261812,32.8084,0,0.98459320736,15,5,8.109,47.223621261812,29.855644,0,1.51575792252,0,0,-6.039738,354.1, -0.3, -0.5,0,0,1024,1024,1684,1024,63.2,0,94,4.057,4.028,0,0,0,0,5.404,81.5,47.223621261812,29.855644,6,P-GPS,
14800,2021-09-06 02:24:02,47.5727003310613,-122.626624299596,30.511812,30.5446204,17.335168861812,47.879789261812,33.792652,0,1.00473100328,15,5,8.109,47.879789261812,30.511812,0,1.51575792252,0,0,-6.263432,353.8, -0.9, -0.7,0,0,1024,1024,1654,1024,63.2,0,94,4.057,4.028,0,0,0,0,5.404,81.5,47.879789261812,30.511812,6,P-GPS,
14900,2021-09-06 02:24:03,47.5727004360251,-122.62662477363,31.496064,31.5288724,17.335168861812,48.864041261812,34.776904,0,1.07416670104,15,5,8.109,48.864041261812,31.496064,0,1.51575792252,0,0,-6.263432,353.7, -1, -0.5,0,0,1024,1024,1507,1024,63.2,0,94,4.057,4.028,0,0,0,0,5.404,81.5,48.864041261812,31.496064,6,P-GPS,
15000,2021-09-06 02:24:03,47.5727005244427,-122.626624812223,32.152232,32.1850404,17.335168861812,49.520209261812,35.761156,0,1.1077592218,15,5,8.069,49.520209261812,32.152232,0,1.51575792252,0,0,-6.487126,353.6, -0.3, -0.3,0,0,1024,1024,1176,1024,63.2,0,94,4.049,4.018,0,0,0,0,5.318,81.5,49.520209261812,32.152232,6,P-GPS,
15100,2021-09-06 02:24:03,47.5727006520883,-122.626624803928,33.136484,33.1692924,17.335168861812,50.504461261812,36.745408,0,1.15127628356,15,5,8.069,50.504461261812,33.136484,0,1.51575792252,0,0,-6.039738,353.5, -0.8, -0.4,0,0,1024,1024,1176,1024,63.2,0,94,4.049,4.018,0,0,0,0,5.318,81.5,50.504461261812,33.136484,6,P-GPS,
15200,2021-09-06 02:24:03,47.5727007777626,-122.626624823288,33.792652,33.8254604,17.335168861812,51.160629261812,37.401576,0,1.19638455272,15,5,8.069,51.160629261812,33.792652,0,1.51575792252,0,0,-5.368656,353.3, -1.2, -0.3,0,0,1024,1024,1024,1024,63.2,0,94,4.049,4.018,0,0,0,0,5.318,81.5,51.160629261812,33.792652,6,P-GPS,
15300,2021-09-06 02:24:03,47.5727011822547,-122.626625342254,34.44882,34.4816284,17.335168861812,51.816797261812,38.385828,0,1.37785765564,15,5,8.069,51.816797261812,34.44882,0,1.51575792252,0,0,-4.697574,353.1, -1, -1.1,0,0,1024,1024,1024,1024,63.2,0,94,4.049,4.018,0,0,0,0,5.318,81.5,51.816797261812,34.44882,6,P-GPS,
15400,2021-09-06 02:24:03,47.5727013271866,-122.626625521364,34.776904,34.8097124,17.335168861812,52.144881261812,39.041996,0,1.44312996744,15,5,8.069,52.144881261812,34.776904,0,1.51575792252,0,0,-3.802798,352.8, -1.1, -0.3,0,0,1024,1024,1024,1024,63.2,0,94,4.049,4.018,0,0,0,0,5.318,81.5,52.144881261812,34.776904,6,P-GPS,
15500,2021-09-06 02:24:03,47.572701424116,-122.626625675528,35.104988,35.1377964,17.335168861812,52.472965261812,39.37008,0,1.4901903364,15,5,8.069,52.472965261812,35.104988,0,1.51575792252,0,0,-2.908022,353, -2, -0.9,0,0,1024,1024,1024,1024,63.2,0,94,4.049,4.018,0,0,0,0,5.318,81.5,52.472965261812,35.104988,6,P-GPS,
15600,2021-09-06 02:24:03,47.5727015210309,-122.626625767172,35.433072,35.4658804,17.335168861812,52.801049261812,39.698164,0.223694,1.53151579704,15,5,8.069,52.801049261812,35.433072,0.223694,1.53151579704,0,0.223694,-2.013246,352.9, -2.9, -1.6,0,0,1024,1024,1024,1024,63.2,0,94,4.049,4.018,0,0,0,0,5.318,81.5,52.801049261812,35.433072,6,P-GPS,
15700,2021-09-06 02:24:03,47.5727016958162,-122.626625718345,35.761156,35.7939644,17.335168861812,53.129133261812,40.026248,0.223694,1.58602695364,15,5,8.069,53.129133261812,35.761156,0.223694,1.58602695364,0,0.223694,-1.342164,352.8, -3.3, -2.3,0,0,1024,1024,1024,1024,63.2,0,94,4.049,4.018,0,0,0,0,5.318,81.5,53.129133261812,35.761156,6,P-GPS,
15800,2021-09-06 02:24:03,47.5727020077023,-122.626625842097,35.761156,35.7939644,17.335168861812,53.129133261812,40.026248,0.223694,1.70310700988,15,5,8.069,53.129133261812,35.761156,0.223694,1.70310700988,0,0.223694,-0.671082,352.6, -3.2, -2.8,0,0,1024,1024,1024,1024,63.2,0,94,4.049,4.018,0,0,0,0,5.318,81.5,53.129133261812,35.761156,6,P-GPS,
15900,2021-09-06 02:24:04,47.5727020812559,-122.626625826897,35.761156,35.7939644,17.335168861812,53.129133261812,40.026248,0.223694,1.72685044896,15,5,8.069,53.129133261812,35.761156,0.223694,1.72685044896,0,0.223694,-0.447388,352.4, -3, -3.6,0,0,1024,1024,1024,1024,63.2,0,94,4.049,4.018,0,0,0,0,5.318,81.5,53.129133261812,35.761156,6,P-GPS,
16000,2021-09-06 02:24:04,47.5727021517085,-122.626625835578,35.433072,35.4658804,17.335168861812,52.801049261812,40.026248,0.223694,1.75167000356,15,5,8.062,53.129133261812,35.761156,0.223694,1.75167000356,0,0.223694,0,352.4, -3.2, -3.9,0,0,1024,1024,1024,1024,63.2,0,94,4.134,4.111,0,0,0,0,5.781,81.5,52.801049261812,35.433072,6,P-GPS,
16100,2021-09-06 02:24:04,47.5727022125728,-122.626625931409,35.433072,35.4658804,17.335168861812,52.801049261812,40.026248,0.223694,1.78077105436,15,5,8.062,53.129133261812,35.761156,0.223694,1.78077105436,0,0.223694,0,352.4, -3.7, -3.8,0,0,1024,1024,1024,1024,63.2,0,94,4.134,4.111,0,0,0,0,5.781,81.5,52.801049261812,35.433072,6,P-GPS,
16200,2021-09-06 02:24:04,47.5727020814322,-122.626626277205,35.433072,35.4658804,17.335168861812,52.801049261812,40.026248,0.223694,1.76904861304,15,5,8.062,53.129133261812,35.761156,0.223694,1.78077105436,0,0.223694,0,352.3, -3.3, -4.1,0,0,1024,1024,1024,1024,63.2,0,94,4.134,4.111,0,0,0,0,5.781,81.5,52.801049261812,35.433072,6,P-GPS,
16300,2021-09-06 02:24:04,47.5727021225142,-122.62662644027,35.433072,35.4658804,17.335168861812,52.801049261812,40.026248,0.223694,1.79933404708,15,5,8.062,53.129133261812,35.761156,0.223694,1.79933404708,0,0.223694,0,352.1, -3.3, -4.4,0,0,1024,1024,1024,1024,63.2,0,94,4.134,4.111,0,0,0,0,5.781,81.5,52.801049261812,35.433072,6,P-GPS,
16400,2021-09-06 02:24:04,47.5727021633755,-122.626626615753,35.433072,35.4658804,17.335168861812,52.801049261812,40.026248,0.223694,1.83138785388,15,5,8.062,53.129133261812,35.761156,0.223694,1.83138785388,0,0.223694,0,352, -3.1, -5,0,0,1024,1024,1024,1024,63.2,0,94,4.134,4.111,0,0,0,0,5.781,81.5,52.801049261812,35.433072,6,P-GPS,
16500,2021-09-06 02:24:04,47.5727021880843,-122.62662684414,35.104988,35.1377964,17.335168861812,52.472965261812,40.026248,0,1.86472774996,15,5,8.062,53.129133261812,35.761156,0.223694,1.86472774996,0,0,0,351.9, -2.6, -5.4,0,0,1024,1024,1024,1024,63.2,0,94,4.134,4.111,0,0,0,0,5.781,81.5,52.472965261812,35.104988,6,P-GPS,
16600,2021-09-06 02:24:04,47.5727019349194,-122.626627438473,35.104988,35.1377964,17.335168861812,52.472965261812,40.026248,0,1.8582021592,15,5,8.062,53.129133261812,35.761156,0.223694,1.86472774996,0,0,0,351.9, -3, -5.1,0,0,1024,1024,1024,1024,63.2,0,94,4.134,4.111,0,0,0,0,5.781,81.5,52.472965261812,35.104988,6,P-GPS,
16700,2021-09-06 02:24:04,47.5727019255494,-122.626627813934,35.104988,35.1377964,17.335168861812,52.472965261812,40.026248,0,1.90701121588,15,5,8.062,53.129133261812,35.761156,0.223694,1.90701121588,0,0,0,352, -3.3, -5,0,0,1024,1024,1024,1024,63.2,0,94,4.134,4.111,0,0,0,0,5.781,81.5,52.472965261812,35.104988,6,P-GPS,
16800,2021-09-06 02:24:04,47.5727019177845,-122.626628190629,34.776904,34.8097124,17.335168861812,52.144881261812,40.026248,0,1.95962276612,15,5,8.062,53.129133261812,35.761156,0.223694,1.95962276612,0,0,0,351.9, -3.7, -3.9,0,0,1024,1024,1024,1024,63.2,0,94,4.134,4.111,0,0,0,0,5.781,81.5,52.144881261812,34.776904,6,P-GPS,
16900,2021-09-06 02:24:05,47.5727019452918,-122.626628505048,34.776904,34.8097124,17.335168861812,52.144881261812,40.026248,0,2.0153872036,15,5,8.062,53.129133261812,35.761156,0.223694,2.0153872036,0,0,0,351.7, -3.5, -4,0,0,1024,1024,1024,1024,63.2,0,94,4.134,4.111,0,0,0,0,5.781,81.5,52.144881261812,34.776904,6,P-GPS,
17000,2021-09-06 02:24:05,47.5727019218687,-122.626628699465,34.44882,34.4816284,17.335168861812,51.816797261812,40.026248,0,2.03930780804,15,5,8.212,53.129133261812,35.761156,0.223694,2.03930780804,0,0,0,351.6, -3, -4.1,0,0,1024,1024,1024,1024,63.2,0,94,4.082,4.057,0,0,0,0,4.315,81.68,51.816797261812,34.44882,6,P-GPS,
17100,2021-09-06 02:24:05,47.5727020162215,-122.626628926355,34.44882,34.4816284,17.335168861812,51.816797261812,40.026248,0,2.10174547408,15,5,8.212,53.129133261812,35.761156,0.223694,2.10174547408,0,0,0,351.6, -3.1, -3.4,0,0,1024,1024,1024,1024,63.2,0,94,4.082,4.057,0,0,0,0,4.315,81.68,51.816797261812,34.44882,6,P-GPS,
17200,2021-09-06 02:24:05,47.5727021113292,-122.626629137758,34.120736,34.1535444,17.335168861812,51.488713261812,40.026248,0,2.16206699832,15,5,8.212,53.129133261812,35.761156,0.223694,2.16206699832,0,0,0,351.4, -2.7, -2.7,0,0,1024,1024,1024,1024,63.2,0,94,4.082,4.057,0,0,0,0,4.315,81.68,51.488713261812,34.120736,6,P-GPS,
17300,2021-09-06 02:24:05,47.5727022443352,-122.626629224015,34.120736,34.1535444,17.335168861812,51.488713261812,40.026248,0,2.21262146188,15,5,8.212,53.129133261812,35.761156,0.223694,2.21262146188,0,0,0,351.4, -3.4, -2.2,0,0,1024,1024,1024,1024,63.2,0,94,4.082,4.057,0,0,0,0,4.315,81.68,51.488713261812,34.120736,6,P-GPS,
17400,2021-09-06 02:24:05,47.5727023928127,-122.626629292037,34.120736,34.1535444,17.335168861812,51.488713261812,40.026248,0,2.26469167352,15,5,8.212,53.129133261812,35.761156,0.223694,2.26469167352,0,0,0,351.6, -4.3, -1.9,0,0,1024,1024,1024,1024,63.2,0,94,4.082,4.057,0,0,0,0,4.315,81.68,51.488713261812,34.120736,6,P-GPS,
17500,2021-09-06 02:24:05,47.5727028592992,-122.626628793719,34.120736,34.1535444,17.335168861812,51.488713261812,40.026248,0,2.32441280404,15,5,8.212,53.129133261812,35.761156,0.223694,2.32441280404,0,0,0,351.8, -4.4, -1.9,0,0,1024,1024,1024,859,63.2,0,94,4.082,4.057,0,0,0,0,4.315,81.68,51.488713261812,34.120736,6,P-GPS,
17600,2021-09-06 02:24:05,47.5727031280991,-122.626628816493,34.120736,34.1535444,17.335168861812,51.488713261812,40.026248,0,2.40835637628,15,5,8.212,53.129133261812,35.761156,0.223694,2.40835637628,0,0,0,351.6, -4, -3,0,0,1024,1024,1024,519,63,0,94,4.082,4.057,0,0,0,0,4.315,81.68,51.488713261812,34.120736,6,P-GPS,
17700,2021-09-06 02:24:05,47.5727035390447,-122.626628677919,34.120736,34.1535444,17.335168861812,51.488713261812,40.026248,0,2.51617790204,15,5,8.212,53.129133261812,35.761156,0.223694,2.51617790204,0,0,0,351.1, -2.8, -3.7,0,0,1024,1024,1024,436,61.8,0,94,4.082,4.057,0,0,0,0,4.315,81.68,51.488713261812,34.120736,6,P-GPS,
17800,2021-09-06 02:24:05,47.5727039453221,-122.626628521695,34.120736,34.1535444,17.335168861812,51.488713261812,40.026248,0.223694,2.62497711812,15,5,8.212,53.129133261812,35.761156,0.223694,2.62497711812,0.223694,0,0,349.4, -2.3, -3.9,0,0,1024,1024,1024,411,59,0,94,4.082,4.057,0,0,0,0,4.315,81.68,51.488713261812,34.120736,6,P-GPS,
17900,2021-09-06 02:24:06,47.5727047036821,-122.626627755045,34.120736,34.1535444,17.335168861812,51.488713261812,40.026248,0.223694,2.79158801584,15,5,8.212,53.129133261812,35.761156,0.223694,2.79158801584,0.223694,0,0,346.4, -2, -4.2,0,0,1024,1024,1024,364,55.3,0,94,4.082,4.057,0,0,0,0,4.315,81.68,51.488713261812,34.120736,6,P-GPS,
18000,2021-09-06 02:24:06,47.5727050582001,-122.626627588066,34.44882,34.4816284,17.335168861812,51.816797261812,40.026248,0.223694,2.89617135252,15,5,8.143,53.129133261812,35.761156,0.223694,2.89617135252,0.223694,0,0,342.5, -1.9, -4.6,0,0,1024,1024,1024,364,51.1,0,94,4.072,4.046,0,0,0,0,3.996,81.68,51.816797261812,34.44882,6,P-GPS,
18100,2021-09-06 02:24:06,47.5727052725626,-122.626627483676,34.44882,34.4816284,17.335168861812,51.816797261812,32.8084,0.223694,2.96034786376,15,5,8.143,53.129133261812,35.761156,0.223694,2.96034786376,0.223694,0,0,338.1, -1.5, -4.7,0,0,1024,1024,1024,364,46.5,0,94,4.072,4.046,0,0,0,0,3.996,81.68,51.816797261812,34.44882,6,P-GPS,
18200,2021-09-06 02:24:06,47.5727054309374,-122.626627371155,34.44882,34.4816284,17.335168861812,51.816797261812,32.480316,0,3.00544957124,15,5,8.143,53.129133261812,35.761156,0.223694,3.00544957124,0,0,-0.223694,333.5, -1.9, -4.7,0,0,1024,1024,1024,364,41.8,0,94,4.072,4.046,0,0,0,0,3.996,81.68,51.816797261812,34.44882,6,P-GPS,
18300,2021-09-06 02:24:06,47.5727048135849,-122.626626898878,34.44882,34.4816284,17.335168861812,51.816797261812,32.480316,0,2.75472777844,15,5,8.143,53.129133261812,35.761156,0.223694,3.00544957124,0,0,-0.223694,328.8, -2, -4.4,0,0,1024,1024,1024,364,37.1,0,94,4.072,4.046,0,0,0,0,3.996,81.68,51.816797261812,34.44882,6,P-GPS,
18400,2021-09-06 02:24:06,47.5727047903659,-122.626626699454,34.44882,34.4816284,17.335168861812,51.816797261812,32.480316,0,2.73148958872,15,5,8.143,53.129133261812,35.761156,0.223694,3.00544957124,0,0,-0.447388,324.2, -2.6, -3.6,0,0,1024,1024,1024,378,32.3,0,94,4.072,4.046,0,0,0,0,3.996,81.68,51.816797261812,34.44882,6,P-GPS,
18500,2021-09-06 02:24:06,47.5727048372421,-122.626626561305,34.120736,34.1535444,17.335168861812,51.488713261812,32.480316,0,2.73779864404,15,5,8.143,53.129133261812,35.761156,0.223694,3.00544957124,0,0,-0.223694,319.5, -2.4, -3.1,0,0,1024,1024,1024,502,27.7,0,94,4.072,4.046,0,0,0,0,3.996,81.68,51.488713261812,34.120736,6,P-GPS,
18600,2021-09-06 02:24:06,47.572704860642,-122.62662641777,34.120736,34.1535444,17.335168861812,51.488713261812,32.480316,0,2.73602042876,15,5,8.143,53.129133261812,35.761156,0.223694,3.00544957124,0,0,-0.223694,315.2, -2.9, -1.9,0,0,1024,1024,1024,761,23.9,0,94,4.072,4.046,0,0,0,0,3.996,81.68,51.488713261812,34.120736,6,P-GPS,
18700,2021-09-06 02:24:06,47.5727047027726,-122.62662606015,34.120736,34.1535444,17.335168861812,51.488713261812,32.480316,0,2.6572671454,15,5,8.143,53.129133261812,35.761156,0.223694,3.00544957124,0,0,-0.223694,311.9, -3.8, -0.7,0,0,1024,1024,1024,1024,21.4,0,94,4.072,4.046,0,0,0,0,3.996,81.68,51.488713261812,34.120736,6,P-GPS,
